"@type";"name";"typeCommunecter";"url.communecter";"url.api";"url.website";"address.@type";"address.streetAddress";"address.postalCode";"address.addressLocality";"address.codeInsee";"address.addressCountry";"geo.@type";"geo.latitude";"geo.longitude";"tags.0";"tags.1";"tags.2";"slug";"description";"image";"shortDescription";"tags.3";"tags.4";"email";"tags.5";"tags.6";"tags.7";"tags.8";"tags.9";"tags.10";"tags.11";"tags.12";"tags.13";"tags.14"
"Organization";"Biocoop L’Ephebio";"LocalBusiness";"https://www.communecter.org/#@biocoopLephebio";"https://www.communecter.org/api/organization/get/id/594e0fc140bb4eba4a87aa77";"http://biocoop.fr/";"PostalAddress";"CC Les Portes Du Littoral route de Sète";"34300";"AGDE";"34003";"FR";"GeoCoordinates";"43.3068271";"3.4949899";"Vrac";"Épicerie";"Produits biologiques";"biocoopLephebio";" ";" ";" ";" ";" ";" ";" ";" ";" ";" ";" ";" ";" ";" ";" ";" "
"Organization";"Biocoop Marché Couvert";"LocalBusiness";"https://www.communecter.org/#@biocoopMarcheCouvert";"https://www.communecter.org/api/organization/get/id/594e0fc140bb4eba4a87aa7b";"http://biocoop.fr/";"PostalAddress";"place Jean-Baptiste Durand";"47000";"AGEN";"47001";"FR";"GeoCoordinates";"44.20417255";"0.617773748094027";"Vrac";"Épicerie";"Produits biologiques";"biocoopMarcheCouvert";" ";" ";" ";" ";" ";" ";" ";" ";" ";" ";" ";" ";" ";" ";" ";" "
"Organization";"Biocoop Le Pré Vert";"LocalBusiness";"https://www.communecter.org/#@biocoopLePreVert";"https://www.communecter.org/api/organization/get/id/594e0fc140bb4eba4a87aa7f";"http://biocoop.fr/";"PostalAddress";"156 impasse Péchabout";"47000";"AGEN";"47001";"FR";"GeoCoordinates";"44.1944195";"0.6424393";"Vrac";"Épicerie";"Produits biologiques";"biocoopLePreVert";" ";" ";" ";" ";" ";" ";" ";" ";" ";" ";" ";" ";" ";" ";" ";" "
"Organization";"Biocoop Terres Bio";"LocalBusiness";"https://www.communecter.org/#@biocoopTerresBio";"https://www.communecter.org/api/organization/get/id/594e0fc140bb4eba4a87aa83";"http://biocoop.fr/";"PostalAddress";"1 rue Pré Potet";"21121";"AHUY";"21003";"FR";"GeoCoordinates";"47.3574336";"5.0348574";"Vrac";"Épicerie";"Produits biologiques";"biocoopTerresBio";" ";" ";" ";" ";" ";" ";" ";" ";" ";" ";" ";" ";" ";" ";" ";" "
"Organization";"Biocoop La Coumpagnie";"LocalBusiness";"https://www.communecter.org/#@biocoopLaCoumpagnie";"https://www.communecter.org/api/organization/get/id/594e0fc140bb4eba4a87aa87";"http://biocoop.fr/";"PostalAddress";"840 avenue Camp de Menthe";"13100";"AIX EN PROVENCE";"13001";"FR";"GeoCoordinates";"43.5109773";"5.4138978";"Vrac";"Épicerie";"Produits biologiques";"biocoopLaCoumpagnie";" ";" ";" ";" ";" ";" ";" ";" ";" ";" ";" ";" ";" ";" ";" ";" "
"Organization";"Biomonde LOQO";"LocalBusiness";"https://www.communecter.org/#@biomondeLoqo";"https://www.communecter.org/api/organization/get/id/594e0fc140bb4eba4a87aa8b";"https://www.biomonde.fr/";"PostalAddress";"quartier de la Joliette 12 rue des Docks";"13100";"AIX EN PROVENCE";"13001";"FR";"GeoCoordinates";"43.5298424";"5.4474738";"Vrac";"Épicerie";"Produits biologiques";"biomondeLoqo";" ";" ";" ";" ";" ";" ";" ";" ";" ";" ";" ";" ";" ";" ";" ";" "
"Organization";"La Supérette Bio";"LocalBusiness";"https://www.communecter.org/#@laSuperetteBio";"https://www.communecter.org/api/organization/get/id/594e0fc140bb4eba4a87aa8f";" ";"PostalAddress";"24 cours Sextius";"13100";"AIX EN PROVENCE";"13001";"FR";"GeoCoordinates";"43.5285487";"5.4433781";"Vrac";"Épicerie";"Produits biologiques";"laSuperetteBio";" ";" ";" ";" ";" ";" ";" ";" ";" ";" ";" ";" ";" ";" ";" ";" "
"Organization";"La Vie Claire";"LocalBusiness";"https://www.communecter.org/#@laVieClaire27";"https://www.communecter.org/api/organization/get/id/594e0fc140bb4eba4a87aa93";"http://www.lavieclaire.com";"PostalAddress";"49 rue d’Italie";"13100";"AIX EN PROVENCE";"13001";"FR";"GeoCoordinates";"43.5255874";"5.4536966";"Vrac";"Épicerie";"Produits biologiques";"laVieClaire27";" ";" ";" ";" ";" ";" ";" ";" ";" ";" ";" ";" ";" ";" ";" ";" "
"Organization";"Le Palais des Thés";"LocalBusiness";"https://www.communecter.org/#@lePalaisDesThes2";"https://www.communecter.org/api/organization/get/id/594e0fc140bb4eba4a87aa97";"www.palaisdesthes.com/";"PostalAddress";"1 rue Chabrier";"13100";"AIX EN PROVENCE";"13001";"FR";"GeoCoordinates";"43.5292252";"5.4487106";"Vrac";"Épicerie";"Thé Café";"lePalaisDesThes2";" ";" ";" ";" ";" ";" ";" ";" ";" ";" ";" ";" ";" ";" ";" ";" "
"Organization";"Bio C Bon Gambetta";"LocalBusiness";"https://www.communecter.org/#@bioCBonGambetta";"https://www.communecter.org/api/organization/get/id/594e0fc140bb4eba4a87aa9b";"http://www.bio-c-bon.eu/fr";"PostalAddress";"11 Cours Gambetta";"13100";"AIX EN PROVENCE";"13001";"FR";"GeoCoordinates";"43.5183682";"5.463615";"Vrac";"Épicerie";"Produits biologiques";"bioCBonGambetta";" ";" ";" ";" ";" ";" ";" ";" ";" ";" ";" ";" ";" ";" ";" ";" "
"Organization";"Bio C Bon Belges";"LocalBusiness";"https://www.communecter.org/#@bioCBonBelges";"https://www.communecter.org/api/organization/get/id/594e0fc140bb4eba4a87aa9f";"http://www.bio-c-bon.eu/fr";"PostalAddress";"3 Avenue des Belges";"13100";"AIX EN PROVENCE";"13001";"FR";"GeoCoordinates";"43.5250518";"5.4436526";"Vrac";"Épicerie";"Produits biologiques";"bioCBonBelges";" ";" ";" ";" ";" ";" ";" ";" ";" ";" ";" ";" ";" ";" ";" ";" "
"Organization";"Bio C Bon Briand";"LocalBusiness";"https://www.communecter.org/#@bioCBonBriand";"https://www.communecter.org/api/organization/get/id/594e0fc140bb4eba4a87aaa3";"http://www.bio-c-bon.eu/fr";"PostalAddress";"25 Boulevard Aristide Briand";"13100";"AIX EN PROVENCE";"13001";"FR";"GeoCoordinates";"43.5329547";"5.4470281";"Vrac";"Épicerie";"Produits biologiques";"bioCBonBriand";" ";" ";" ";" ";" ";" ";" ";" ";" ";" ";" ";" ";" ";" ";" ";" "
"Organization";"Bio c’ Bon";"LocalBusiness";"https://www.communecter.org/#@bioCBon1";"https://www.communecter.org/api/organization/get/id/594e0fc140bb4eba4a87aaa7";"http://www.bio-c-bon.eu/fr";"PostalAddress";"30 esplanade Léon Gosse";"73100";"AIX LES BAINS";"73008";"FR";"GeoCoordinates";"45.6940402";"5.9120804";"Vrac";"Épicerie";"Produits biologiques";"bioCBon1";" ";" ";" ";" ";" ";" ";" ";" ";" ";" ";" ";" ";" ";" ";" ";" "
"Organization";"La Vie Claire";"LocalBusiness";"https://www.communecter.org/#@laVieClaire2";"https://www.communecter.org/api/organization/get/id/594e0fc140bb4eba4a87aaab";"http://www.lavieclaire.com";"PostalAddress";"18-19 square Alfred Boucher";"73100";"AIX LES BAINS";"73008";"FR";"GeoCoordinates";"45.6936675";"5.9111064";"Vrac";"Épicerie";"Produits biologiques";"laVieClaire2";" ";" ";" ";" ";" ";" ";" ";" ";" ";" ";" ";" ";" ";" ";" ";" "
"Organization";"La Ressource";"LocalBusiness";"https://www.communecter.org/#@laRessource";"https://www.communecter.org/api/organization/get/id/594e0fc140bb4eba4a87aaaf";"https://www.facebook.com/La-Ressource-168325930220171/?fref=ts";"PostalAddress";"22 rue de Chambéry";"73100";"AIX LES BAINS";"73008";"FR";"GeoCoordinates";"45.6865159";"5.9135264";"Vrac";"Épicerie";"Accepte Contenant";"laRessource";" ";" ";" ";" ";" ";" ";" ";" ";" ";" ";" ";" ";" ";" ";" ";" "
"Organization";"Chocolats Georges Larnicol Aix-les-Bains";"LocalBusiness";"https://www.communecter.org/#@chocolatsGeorgesLarnicolAixlesbains";"https://www.communecter.org/api/organization/get/id/594e0fc140bb4eba4a87aab3";"http://www.chocolaterielarnicol.fr/";"PostalAddress";"289 rue de Genève";"73100";"AIX LES BAINS";"73008";"FR";"GeoCoordinates";"45.6913886";"5.9127205";"Vrac";"Chocolaterie";" ";"chocolatsGeorgesLarnicolAixlesbains";"Chez chocolats Georges Larnicol Aix-le-Bains vous trouverez biscuits et chocolat";" ";" ";" ";" ";" ";" ";" ";" ";" ";" ";" ";" ";" ";" ";" "
"Organization";"Biocoop Aix-les-Bains";"LocalBusiness";"https://www.communecter.org/#@biocoopAixlesbains";"https://www.communecter.org/api/organization/get/id/594e0fc140bb4eba4a87aab7";"http://aixlesbains.biocoop.net/";"PostalAddress";"Allée des Erables";"73420";"DRUMETTAZ CLARAFOND";"73103";"FR";"GeoCoordinates";"45.6584111";"5.9121489";"Vrac";"Épicerie";"Produits biologiques";"biocoopAixlesbains";" ";" ";" ";" ";" ";" ";" ";" ";" ";" ";" ";" ";" ";" ";" ";" "
"Organization";"Biocoop";"LocalBusiness";"https://www.communecter.org/#@biocoop";"https://www.communecter.org/api/organization/get/id/594e0fc140bb4eba4a87aabb";"http://biocoop.fr/";"PostalAddress";"6 rue du Dr. Del Pellegrino";"20000";"AJACCIO";"2A004";"FR";"GeoCoordinates";"41.9288753";"8.7375589";"Vrac";"Épicerie";"Produits biologiques";"biocoop";" ";" ";" ";" ";" ";" ";" ";" ";" ";" ";" ";" ";" ";" ";" ";" "
"Organization";"La Roulotte";"LocalBusiness";"https://www.communecter.org/#@laRoulotte";"https://www.communecter.org/api/organization/get/id/594e0fc140bb4eba4a87aabf";" ";"PostalAddress";"route de Mezzavia";"20090";"AJACCIO";"2A004";"FR";"GeoCoordinates";"41.9480543";"8.7649984";"Vrac";"Épicerie";"Produits biologiques";"laRoulotte";" ";" ";" ";" ";" ";" ";" ";" ";" ";" ";" ";" ";" ";" ";" ";" "
"Organization";"La Vie Claire";"LocalBusiness";"https://www.communecter.org/#@laVieClaire3";"https://www.communecter.org/api/organization/get/id/594e0fc140bb4eba4a87aac3";"http://www.lavieclaire.com";"PostalAddress";"16 boulevard Albert 1er";"20000";"AJACCIO";"2A004";"FR";"GeoCoordinates";"41.9128674";"8.7243735";"Vrac";"Épicerie";"Produits biologiques";"laVieClaire3";" ";" ";" ";" ";" ";" ";" ";" ";" ";" ";" ";" ";" ";" ";" ";" "
"Organization";"L’oria";"LocalBusiness";"https://www.communecter.org/#@loria";"https://www.communecter.org/api/organization/get/id/594e0fc140bb4eba4a87aac7";" ";"PostalAddress";"D31 montée du Stiletto";"20000";"AJACCIO";"2A004";"FR";"GeoCoordinates";"41.9263991";"8.7376029";"Vrac";"Épicerie";"Produits biologiques";"loria";" ";" ";" ";" ";" ";" ";" ";" ";" ";" ";" ";" ";" ";" ";" ";" "
"Organization";"La Vie Claire";"LocalBusiness";"https://www.communecter.org/#@laVieClaire";"https://www.communecter.org/api/organization/get/id/594e0fc140bb4eba4a87aacb";"http://www.lavieclaire.com";"PostalAddress";"51 rue Birmingham";"80300";"ALBERT";"80016";"FR";"GeoCoordinates";"50.0034988";"2.6494074";"Vrac";"Épicerie";"Produits biologiques";"laVieClaire";" ";" ";" ";" ";" ";" ";" ";" ";" ";" ";" ";" ";" ";" ";" ";" "
"Organization";"Satoriz";"LocalBusiness";"https://www.communecter.org/#@satoriz";"https://www.communecter.org/api/organization/get/id/594e0fc140bb4eba4a87aacf";"www.satoriz.fr";"PostalAddress";"1115 chemin de la Cassine";"73200";"ALBERTVILLE";"73011";"FR";"GeoCoordinates";"45.6601435";"6.3762853";"Vrac";"Épicerie";"Produits biologiques";"satoriz";" ";" ";" ";" ";" ";" ";" ";" ";" ";" ";" ";" ";" ";" ";" ";" "
"Organization";"Biocoop Païs Albiges";"LocalBusiness";"https://www.communecter.org/#@biocoopPaisAlbiges";"https://www.communecter.org/api/organization/get/id/594e0fc140bb4eba4a87aad3";"http://biocoop.fr/";"PostalAddress";"9 rue du Puech Petit";"81000";"ALBI";"81004";"FR";"GeoCoordinates";"43.913118";"2.1433812";"Vrac";"Épicerie";"Produits biologiques";"biocoopPaisAlbiges";" ";" ";" ";" ";" ";" ";" ";" ";" ";" ";" ";" ";" ";" ";" ";" "
"Organization";"Biomonde Logic-Bio 81";"LocalBusiness";"https://www.communecter.org/#@biomondeLogicbio81";"https://www.communecter.org/api/organization/get/id/594e0fc140bb4eba4a87aad7";"https://www.biomonde.fr/";"PostalAddress";"8 boulevard Maréchal Lannes";"81000";"ALBI";"81004";"FR";"GeoCoordinates";"43.9426493";"2.1511531";"Vrac";"Épicerie";"Produits biologiques";"biomondeLogicbio81";" ";" ";" ";" ";" ";" ";" ";" ";" ";" ";" ";" ";" ";" ";" ";" "
"Organization";"La Vie Claire";"LocalBusiness";"https://www.communecter.org/#@laVieClaire95";"https://www.communecter.org/api/organization/get/id/594e0fc140bb4eba4a87aadb";"http://www.lavieclaire.com";"PostalAddress";"3 rue Maréchal Jean Marie De Lattre De Tassigny";"61000";"ALENCON";"61001";"FR";"GeoCoordinates";"48.428483";"0.088586";"Vrac";"Épicerie";"Produits biologiques";"laVieClaire95";" ";" ";" ";" ";" ";" ";" ";" ";" ";" ";" ";" ";" ";" ";" ";" "
"Organization";"Biocoop Soleil Levain";"LocalBusiness";"https://www.communecter.org/#@biocoopSoleilLevain";"https://www.communecter.org/api/organization/get/id/594e0fc240bb4eba4a87aadf";"http://biocoop.fr/";"PostalAddress";"16 avenue Jules Guesde";"30100";"ALES";"30007";"FR";"GeoCoordinates";"44.1197906";"4.0860284";"Vrac";"Épicerie";"Produits biologiques";"biocoopSoleilLevain";" ";" ";" ";" ";" ";" ";" ";" ";" ";" ";" ";" ";" ";" ";" ";" "
"Organization";"La Supérette Bio";"LocalBusiness";"https://www.communecter.org/#@laSuperetteBio5";"https://www.communecter.org/api/organization/get/id/594e0fc240bb4eba4a87aae3";" ";"PostalAddress";"avenue René Cassin";"30100";"ALES";"30007";"FR";"GeoCoordinates";"44.1093031";"4.1025431";"Vrac";"Épicerie";"Produits biologiques";"laSuperetteBio5";" ";" ";" ";" ";" ";" ";" ";" ";" ";" ";" ";" ";" ";" ";" ";" "
"Organization";"La Vie Claire";"LocalBusiness";"https://www.communecter.org/#@laVieClaire96";"https://www.communecter.org/api/organization/get/id/594e0fc240bb4eba4a87aae7";"http://www.lavieclaire.com";"PostalAddress";"117 avenue André Malraux";"30100";"ALES";"30007";"FR";"GeoCoordinates";"44.1161145";"4.1068243";"Vrac";"Épicerie";"Produits biologiques";"laVieClaire96";" ";" ";" ";" ";" ";" ";" ";" ";" ";" ";" ";" ";" ";" ";" ";" "
"Organization";"Canturla";"LocalBusiness";"https://www.communecter.org/#@canturla";"https://www.communecter.org/api/organization/get/id/594e0fc240bb4eba4a87aaeb";"http://www.canturla.fr (pas encore dsponible)";"PostalAddress";"49 avenue Gaston Ribot";"30100";"ALES";"30007";"FR";"GeoCoordinates";"44.1360164";"4.0884945";"Vrac";"Épicerie";" ";"canturla";"Chez Canturla, vous trouverez des produits locaux et en vrac, un salon de thé et un lieu d'exposition/vente de création à base de matériaux de récupération";" ";" ";" ";" ";" ";" ";" ";" ";" ";" ";" ";" ";" ";" ";" "
"Organization";"Bio c’ Bon";"LocalBusiness";"https://www.communecter.org/#@bioCBon13";"https://www.communecter.org/api/organization/get/id/594e0fc240bb4eba4a87aaef";"http://www.bio-c-bon.eu/fr";"PostalAddress";"670 avenue du Canton Vert";"13190";"ALLAUCH";"13002";"FR";"GeoCoordinates";"43.3414505";"5.4723108";"Vrac";"Épicerie";"Produits biologiques";"bioCBon13";" ";" ";" ";" ";" ";" ";" ";" ";" ";" ";" ";" ";" ";" ";" ";" "
"Organization";"Biocoop Le Vert de Terre";"LocalBusiness";"https://www.communecter.org/#@biocoopLeVertDeTerre";"https://www.communecter.org/api/organization/get/id/594e0fc240bb4eba4a87aaf3";"http://biocoop.fr/";"PostalAddress";"186 rue Alexandre Bérard";"01500";"AMBERIEU EN BUGEY";"01004";"FR";"GeoCoordinates";"45.9786057";"5.3491099";"Vrac";"Épicerie";"Produits biologiques";"biocoopLeVertDeTerre";" ";" ";" ";" ";" ";" ";" ";" ";" ";" ";" ";" ";" ";" ";" ";" "
"Organization";"La Vie Claire";"LocalBusiness";"https://www.communecter.org/#@laVieClaire97";"https://www.communecter.org/api/organization/get/id/594e0fc240bb4eba4a87aaf7";"http://www.lavieclaire.com";"PostalAddress";"2 rue des Frères Salvez";"01500";"AMBERIEU EN BUGEY";"01004";"FR";"GeoCoordinates";"45.9799244";"5.3459";"Vrac";"Épicerie";"Produits biologiques";"laVieClaire97";" ";" ";" ";" ";" ";" ";" ";" ";" ";" ";" ";" ";" ";" ";" ";" "
"Organization";"Biocoop du Rouennais";"LocalBusiness";"https://www.communecter.org/#@biocoopDuRouennais";"https://www.communecter.org/api/organization/get/id/594e0fc240bb4eba4a87aafb";"http://biocoop.fr/";"PostalAddress";"161 route de Paris";"76920";"AMFREVILLE LA MI VOIE";"76005";"FR";"GeoCoordinates";"49.415628";"1.11934527037037";"Vrac";"Épicerie";"Produits biologiques";"biocoopDuRouennais";" ";" ";" ";" ";" ";" ";" ";" ";" ";" ";" ";" ";" ";" ";" ";" "
"Organization";"Bio c’ Bon";"LocalBusiness";"https://www.communecter.org/#@bioCBon14";"https://www.communecter.org/api/organization/get/id/594e0fc240bb4eba4a87aaff";"http://www.bio-c-bon.eu/fr";"PostalAddress";"38 rue de Beauvais";"80000";"AMIENS";"80021";"FR";"GeoCoordinates";"49.892612";"2.2927421";"Vrac";"Épicerie";"Produits biologiques";"bioCBon14";" ";" ";" ";" ";" ";" ";" ";" ";" ";" ";" ";" ";" ";" ";" ";" "
"Organization";"Biomonde Rayons Verts";"LocalBusiness";"https://www.communecter.org/#@biomondeRayonsVerts";"https://www.communecter.org/api/organization/get/id/594e0fc240bb4eba4a87ab03";"https://www.biomonde.fr/";"PostalAddress";"14 rue Saint Patrice";"80000";"AMIENS";"80021";"FR";"GeoCoordinates";"49.8949796";"2.2965092";"Vrac";"Épicerie";"Produits biologiques";"biomondeRayonsVerts";" ";" ";" ";" ";" ";" ";" ";" ";" ";" ";" ";" ";" ";" ";" ";" "
"Organization";"La Vie Claire";"LocalBusiness";"https://www.communecter.org/#@laVieClaire98";"https://www.communecter.org/api/organization/get/id/594e0fc240bb4eba4a87ab07";"http://www.lavieclaire.com";"PostalAddress";"1 Bis rue des Chaudronniers";"80000";"AMIENS";"80021";"FR";"GeoCoordinates";"49.8955381";"2.2964592";"Vrac";"Épicerie";"Produits biologiques";"laVieClaire98";" ";" ";" ";" ";" ";" ";" ";" ";" ";" ";" ";" ";" ";" ";" ";" "
"Organization";"Naturéo";"LocalBusiness";"https://www.communecter.org/#@natureo10";"https://www.communecter.org/api/organization/get/id/594e0fc240bb4eba4a87ab0b";"www.natureo-bio.fr/nos-magasins";"PostalAddress";"850 rue de l’Europe";"45200";"AMILLY";"45004";"FR";"GeoCoordinates";"47.979525";"2.7296035";"Vrac";"Épicerie";"Produits biologiques";"natureo10";" ";" ";" ";" ";" ";" ";" ";" ";" ";" ";" ";" ";" ";" ";" ";" "
"Organization";"Biomonde et Clic’n Bio Naturine";"LocalBusiness";"https://www.communecter.org/#@biomondeEtClicnBioNaturine";"https://www.communecter.org/api/organization/get/id/594e0fc240bb4eba4a87ab0f";"https://www.biomonde.fr/";"PostalAddress";"21 rue des Prés";"90400";"ANDELNANS";"90001";"FR";"GeoCoordinates";"47.6050822";"6.8616048";"Vrac";"Épicerie";"Produits biologiques";"biomondeEtClicnBioNaturine";" ";" ";" ";" ";" ";" ";" ";" ";" ";" ";" ";" ";" ";" ";" ";" "
"Organization";"Biocoop Des Grains De Blé 2";"LocalBusiness";"https://www.communecter.org/#@biocoopDesGrainsDeBle2";"https://www.communecter.org/api/organization/get/id/594e0fc240bb4eba4a87ab13";"http://biocoop.fr/";"PostalAddress";"83 boulevard de la République";"33510";"ANDERNOS LES BAINS";"33005";"FR";"GeoCoordinates";"44.7417832";"-1.0980023";"Vrac";"Épicerie";"Produits biologiques";"biocoopDesGrainsDeBle2";" ";"https://www.communecter.org/upload/communecter/organizations/594e0fc240bb4eba4a87ab13/logo-superm-P.png";"Magasin bio";"Accepte contenant";" ";" ";" ";" ";" ";" ";" ";" ";" ";" ";" ";" "
"Organization";"Biocoop";"LocalBusiness";"https://www.communecter.org/#@biocoop22";"https://www.communecter.org/api/organization/get/id/594e0fc240bb4eba4a87ab17";"http://biocoop.fr/";"PostalAddress";"5 chemin de Peirrascas";"30140";"ANDUZE";"30010";"FR";"GeoCoordinates";"44.0545668";"3.9857082";"Vrac";"Épicerie";"Produits biologiques";"biocoop22";" ";" ";" ";" ";" ";" ";" ";" ";" ";" ";" ";" ";" ";" ";" ";" "
"Organization";"Naturéo";"LocalBusiness";"https://www.communecter.org/#@natureo11";"https://www.communecter.org/api/organization/get/id/594e0fc240bb4eba4a87ab1b";"www.natureo-bio.fr/nos-magasins";"PostalAddress";"CC Grand Maine 1 rue du Grand Launay";"49000";"ANGERS";"49007";"FR";"GeoCoordinates";"47.4683538";"-0.5954652";"Vrac";"Épicerie";"Produits biologiques";"natureo11";" ";" ";" ";" ";" ";" ";" ";" ";" ";" ";" ";" ";" ";" ";" ";" "
"Organization";"Famille Mary";"LocalBusiness";"https://www.communecter.org/#@familleMary9";"https://www.communecter.org/api/organization/get/id/594e0fc240bb4eba4a87ab1f";"https://www.famillemary.fr";"PostalAddress";"74 rue Plantagenêt";"49000";"ANGERS";"49007";"FR";"GeoCoordinates";"47.4733377";"-0.5553726";"Vrac";"Épicerie";"Miel";"familleMary9";"Épicerie spécialisée (miel confiture, pollen, propolis)";" ";" ";"Cosmétique";" ";" ";" ";" ";" ";" ";" ";" ";" ";" ";" ";" "
"Organization";"Pirmeur Saveurs du Primeur";"LocalBusiness";"https://www.communecter.org/#@pirmeurSaveursDuPrimeur";"https://www.communecter.org/api/organization/get/id/594e0fc240bb4eba4a87ab23";" ";"PostalAddress";"6 Place Hérault";"49000";"ANGERS";"49007";"FR";"GeoCoordinates";"47.4753555";"-0.549706";"Vrac";"Épicerie";"Produits biologiques";"pirmeurSaveursDuPrimeur";" ";" ";" ";" ";" ";" ";" ";" ";" ";" ";" ";" ";" ";" ";" ";" "
"Organization";"L'épicerie 2 Pauline";"LocalBusiness";"https://www.communecter.org/#@lepicerie2Pauline";"https://www.communecter.org/api/organization/get/id/594e0fc240bb4eba4a87ab27";"https://www.facebook.com/Lépicerie-2-Pauline-181875305501825";"PostalAddress";"22 rue St Julien";"49000";"ANGERS";"49007";"FR";"GeoCoordinates";"47.4699261";"-0.5513979";"Vrac";"Épicerie";"Accepte Contenant";"lepicerie2Pauline";" ";" ";" ";" ";" ";" ";" ";" ";" ";" ";" ";" ";" ";" ";" ";" "
"Organization";"Saveurs du primeur";"LocalBusiness";"https://www.communecter.org/#@saveursDuPrimeur";"https://www.communecter.org/api/organization/get/id/594e0fc240bb4eba4a87ab2b";"http://www.saveursduprimeur-angers.com/";"PostalAddress";"6 Place Hérault";"49000";"ANGERS";"49007";"FR";"GeoCoordinates";"47.4753555";"-0.549706";"Vrac";"Épicerie";"Accepte Contenant";"saveursDuPrimeur";" ";" ";" ";" ";" ";" ";" ";" ";" ";" ";" ";" ";" ";" ";" ";" "
"Organization";"Biocoop Doyenné";"LocalBusiness";"https://www.communecter.org/#@biocoopDoyenne";"https://www.communecter.org/api/organization/get/id/594e0fc240bb4eba4a87ab33";"http://biocoop.fr/";"PostalAddress";"50 Boulevard du Doyenné";"49000";"ANGERS";"49007";"FR";"GeoCoordinates";"47.4870628";"-0.5390178";"Vrac";"Épicerie";"Produits biologiques";"biocoopDoyenne";" ";" ";" ";"Accepte Contenant";" ";" ";" ";" ";" ";" ";" ";" ";" ";" ";" ";" "
"Organization";"Biocoop Foch";"LocalBusiness";"https://www.communecter.org/#@biocoopFoch";"https://www.communecter.org/api/organization/get/id/594e0fc240bb4eba4a87ab37";"http://biocoop.fr/";"PostalAddress";"59 boulevard Foch";"49000";"ANGERS";"49007";"FR";"GeoCoordinates";"47.4684496";"-0.5505478";"Vrac";"Épicerie";"Produits biologiques";"biocoopFoch";" ";" ";" ";" ";" ";" ";" ";" ";" ";" ";" ";" ";" ";" ";" ";" "
"Organization";"Biocoop Parme";"LocalBusiness";"https://www.communecter.org/#@biocoopParme";"https://www.communecter.org/api/organization/get/id/594e0fc240bb4eba4a87ab3b";"http://biocoop.fr/";"PostalAddress";"ZA de Parme";"64600";"ANGLET";"64024";"FR";"GeoCoordinates";"43.472797";"-1.534319";"Vrac";"Épicerie";"Produits biologiques";"biocoopParme";" ";" ";" ";" ";" ";" ";" ";" ";" ";" ";" ";" ";" ";" ";" ";" "
"Organization";"Bio c’ Bon";"LocalBusiness";"https://www.communecter.org/#@bioCBon15";"https://www.communecter.org/api/organization/get/id/594e0fc240bb4eba4a87ab3f";"http://www.bio-c-bon.eu/fr";"PostalAddress";"83 rue Hergé";"16000";"ANGOULEME";"16015";"FR";"GeoCoordinates";"45.6487151";"0.156925644195042";"Vrac";"Épicerie";"Produits biologiques";"bioCBon15";" ";" ";" ";" ";" ";" ";" ";" ";" ";" ";" ";" ";" ";" ";" ";" "
"Organization";"Biocoop Regain Sud";"LocalBusiness";"https://www.communecter.org/#@biocoopRegainSud";"https://www.communecter.org/api/organization/get/id/594e0fc240bb4eba4a87ab43";"http://biocoop.fr/";"PostalAddress";"ZAC des Fourneaux rue Albert Denis";"17690";"ANGOULINS";"17010";"FR";"GeoCoordinates";"46.104641";"-1.099744";"Vrac";"Épicerie";"Produits biologiques";"biocoopRegainSud";" ";" ";" ";" ";" ";" ";" ";" ";" ";" ";" ";" ";" ";" ";" ";" "
"Organization";"Biocoop Aquarius";"LocalBusiness";"https://www.communecter.org/#@biocoopAquarius";"https://www.communecter.org/api/organization/get/id/594e0fc240bb4eba4a87ab47";"http://biocoop.fr/";"PostalAddress";"6 rue du 11è BCA";"74000";"ANNECY";"74010";"FR";"GeoCoordinates";"45.9123887";"6.116493";"Vrac";"Épicerie";"Produits biologiques";"biocoopAquarius";" ";" ";" ";" ";" ";" ";" ";" ";" ";" ";" ";" ";" ";" ";" ";" "
"Organization";"Biocoop Aquarius La Paix";"LocalBusiness";"https://www.communecter.org/#@biocoopAquariusLaPaix";"https://www.communecter.org/api/organization/get/id/594e0fc240bb4eba4a87ab4b";"http://biocoop.fr/";"PostalAddress";"10 rue de la Paix";"74000";"ANNECY";"74010";"FR";"GeoCoordinates";"45.9045102";"6.1311871";"Vrac";"Épicerie";"Produits biologiques";"biocoopAquariusLaPaix";" ";" ";" ";" ";" ";" ";" ";" ";" ";" ";" ";" ";" ";" ";" ";" "
"Organization";"L’eau Vive";"LocalBusiness";"https://www.communecter.org/#@leauVive23";"https://www.communecter.org/api/organization/get/id/594e0fc240bb4eba4a87ab4f";"www.eau-vive.fr";"PostalAddress";"4 avenue des Romains";"74000";"ANNECY";"74010";"FR";"GeoCoordinates";"45.9094758";"6.1205921";"Vrac";"Épicerie";"Produits biologiques";"leauVive23";" ";" ";" ";" ";" ";" ";" ";" ";" ";" ";" ";" ";" ";" ";" ";" "
"Organization";"Famille Mary";"LocalBusiness";"https://www.communecter.org/#@familleMary10";"https://www.communecter.org/api/organization/get/id/594e0fc240bb4eba4a87ab53";"https://www.famillemary.fr";"PostalAddress";"37 rue Carnot";"74000";"ANNECY";"74010";"FR";"GeoCoordinates";"45.9024006";"6.12486696770305";"Vrac";"Épicerie";"Miel";"familleMary10";"Épicerie spécialisée (miel confiture, pollen, propolis)";" ";" ";"Cosmétique";" ";" ";" ";" ";" ";" ";" ";" ";" ";" ";" ";" "
"Organization";"Botanic";"LocalBusiness";"https://www.communecter.org/#@botanic27";"https://www.communecter.org/api/organization/get/id/594e0fc240bb4eba4a87ab57";"https://www.botanic.com/";"PostalAddress";"5-7 prè de la Danse";"74940";"ANNECY LE VIEUX";"74011";"FR";"GeoCoordinates";"45.9196453";"6.1449077";"Vrac";"Jardinerie";"Produits biologiques";"botanic27";"Jardinerie avec litière pour chat en vrac";" ";" ";" ";" ";" ";" ";" ";" ";" ";" ";" ";" ";" ";" ";" "
"Organization";"L’eau Vive";"LocalBusiness";"https://www.communecter.org/#@leauVive24";"https://www.communecter.org/api/organization/get/id/594e0fc240bb4eba4a87ab5b";"www.eau-vive.fr";"PostalAddress";"10 rue de Genève";"74100";"ANNEMASSE";"74012";"FR";"GeoCoordinates";"46.192975";"6.2322827";"Vrac";"Épicerie";"Produits biologiques";"leauVive24";" ";" ";" ";" ";" ";" ";" ";" ";" ";" ";" ";" ";" ";" ";" ";" "
"Organization";"Biocoop Bionacelle";"LocalBusiness";"https://www.communecter.org/#@biocoopBionacelle";"https://www.communecter.org/api/organization/get/id/594e0fc240bb4eba4a87ab5f";"http://biocoop.fr/";"PostalAddress";"30 boulevard de la République";"07100";"ANNONAY";"07010";"FR";"GeoCoordinates";"45.2441334";"4.6738333";"Vrac";"Épicerie";"Produits biologiques";"biocoopBionacelle";" ";" ";" ";" ";" ";" ";" ";" ";" ";" ";" ";" ";" ";" ";" ";" "
"Organization";"Satoriz";"LocalBusiness";"https://www.communecter.org/#@satoriz12";"https://www.communecter.org/api/organization/get/id/594e0fc240bb4eba4a87ab63";"www.satoriz.fr";"PostalAddress";"Espace Léman 2 4 bis boulevard du Pré Biollat";"74200";"ANTHY SUR LEMAN";"74013";"FR";"GeoCoordinates";"46.350332";"6.440276";"Vrac";"Épicerie";"Produits biologiques";"satoriz12";" ";" ";" ";" ";" ";" ";" ";" ";" ";" ";" ";" ";" ";" ";" ";" "
"Organization";"Bio c’ Bon";"LocalBusiness";"https://www.communecter.org/#@bioCBon16";"https://www.communecter.org/api/organization/get/id/594e0fc240bb4eba4a87ab67";"http://www.bio-c-bon.eu/fr";"PostalAddress";"42 avenue Robert Soleau";"06600";"ANTIBES";"06004";"FR";"GeoCoordinates";"43.5849809";"7.11963";"Vrac";"Épicerie";"Produits biologiques";"bioCBon16";" ";" ";" ";" ";" ";" ";" ";" ";" ";" ";" ";" ";" ";" ";" ";" "
"Organization";"La Vie Claire";"LocalBusiness";"https://www.communecter.org/#@laVieClaire99";"https://www.communecter.org/api/organization/get/id/594e0fc240bb4eba4a87ab6b";"http://www.lavieclaire.com";"PostalAddress";"36 avenue Robert Soleau";"06600";"ANTIBES";"06004";"FR";"GeoCoordinates";"43.5849809";"7.11963";"Vrac";"Épicerie";"Produits biologiques";"laVieClaire99";" ";" ";" ";" ";" ";" ";" ";" ";" ";" ";" ";" ";" ";" ";" ";" "
"Organization";"Naturalia";"LocalBusiness";"https://www.communecter.org/#@naturalia17";"https://www.communecter.org/api/organization/get/id/594e0fc240bb4eba4a87ab6f";"http://www.naturalia.fr/";"PostalAddress";"5 boulevard Dugommier";"06600";"ANTIBES";"06004";"FR";"GeoCoordinates";"43.5810065";"7.1195707";"Vrac";"Épicerie";"Produits biologiques";"naturalia17";" ";" ";" ";" ";" ";" ";" ";" ";" ";" ";" ";" ";" ";" ";" ";" "
"Organization";"Cosmétique Têtard et Nénuphar";"LocalBusiness";"https://www.communecter.org/#@cosmetiqueTetardEtNenuphar";"https://www.communecter.org/api/organization/get/id/594e0fc240bb4eba4a87ab73";" ";"PostalAddress";"22 rue de l’église";"92160";"ANTONY";"92002";"FR";"GeoCoordinates";"48.7530214";"2.2962848";"Vrac";"Épicerie";"Produits biologiques";"cosmetiqueTetardEtNenuphar";" ";" ";" ";" ";" ";" ";" ";" ";" ";" ";" ";" ";" ";" ";" ";" "
"Organization";"Bio c’ Bon";"LocalBusiness";"https://www.communecter.org/#@bioCBon17";"https://www.communecter.org/api/organization/get/id/594e0fc240bb4eba4a87ab77";"http://www.bio-c-bon.eu/fr";"PostalAddress";"64-66 avenue Aristide Briand";"92160";"ANTONY";"92002";"FR";"GeoCoordinates";"48.7630266";"2.3089392";"Vrac";"Épicerie";"Produits biologiques";"bioCBon17";" ";" ";" ";" ";" ";" ";" ";" ";" ";" ";" ";" ";" ";" ";" ";" "
"Organization";"La Vie Claire";"LocalBusiness";"https://www.communecter.org/#@laVieClaire100";"https://www.communecter.org/api/organization/get/id/594e0fc240bb4eba4a87ab7b";"http://www.lavieclaire.com";"PostalAddress";"38 avenue de la Division";"92160";"ANTONY";"92002";"FR";"GeoCoordinates";"48.7630916";"2.3098585";"Vrac";"Épicerie";"Produits biologiques";"laVieClaire100";" ";" ";" ";" ";" ";" ";" ";" ";" ";" ";" ";" ";" ";" ";" ";" "
"Organization";"Naturalia";"LocalBusiness";"https://www.communecter.org/#@naturalia18";"https://www.communecter.org/api/organization/get/id/594e0fc240bb4eba4a87ab7f";"http://www.naturalia.fr/";"PostalAddress";"88 avenue Aristide Briand";"92160";"ANTONY";"92002";"FR";"GeoCoordinates";"48.7630266";"2.3089392";"Vrac";"Épicerie";"Produits biologiques";"naturalia18";" ";" ";" ";" ";" ";" ";" ";" ";" ";" ";" ";" ";" ";" ";" ";" "
"Organization";"Bio c' Bon Antony Briand";"LocalBusiness";"https://www.communecter.org/#@bioCBonAntonyBriand";"https://www.communecter.org/api/organization/get/id/594e0fc240bb4eba4a87ab83";"http://www.bio-c-bon.eu/fr";"PostalAddress";"64-66 av Aristide Briand";"92160";"ANTONY";"92002";"FR";"GeoCoordinates";"48.7630266";"2.3089392";"Vrac";"Épicerie";"Produits biologiques";"bioCBonAntonyBriand";"Chez Bio c' Bon Antony Briand il n'est pas possible d'apporter ses contenants et aucun contenant n'est proposé.";" ";" ";" ";" ";" ";" ";" ";" ";" ";" ";" ";" ";" ";" ";" "
"Organization";"Biocoop";"LocalBusiness";"https://www.communecter.org/#@biocoop23";"https://www.communecter.org/api/organization/get/id/594e0fc240bb4eba4a87ab87";"http://biocoop.fr/";"PostalAddress";"97 rue du Grand Champ";"38140";"APPRIEU";"38013";"FR";"GeoCoordinates";"45.396554";"5.4682421";"Vrac";"Épicerie";"Produits biologiques";"biocoop23";" ";" ";" ";" ";" ";" ";" ";" ";" ";" ";" ";" ";" ";" ";" ";" "
"Organization";"Biomonde Luberon Bio";"LocalBusiness";"https://www.communecter.org/#@biomondeLuberonBio";"https://www.communecter.org/api/organization/get/id/594e0fc240bb4eba4a87ab8b";"https://www.biomonde.fr/";"PostalAddress";"266 avenue de Roumanille ZI des Bourguignons";"84400";"APT";"84003";"FR";"GeoCoordinates";"43.887694";"5.376155";"Vrac";"Épicerie";"Produits biologiques";"biomondeLuberonBio";" ";" ";" ";" ";" ";" ";" ";" ";" ";" ";" ";" ";" ";" ";" ";" "
"Organization";"Biomonde Bio Comices";"LocalBusiness";"https://www.communecter.org/#@biomondeBioComices";"https://www.communecter.org/api/organization/get/id/594e0fc240bb4eba4a87ab8f";"https://www.biomonde.fr/";"PostalAddress";"14 chemin de Palau";"66700";"ARGELES SUR MER";"66008";"FR";"GeoCoordinates";"42.554315";"3.0137597";"Vrac";"Épicerie";"Produits biologiques";"biomondeBioComices";" ";" ";" ";" ";" ";" ";" ";" ";" ";" ";" ";" ";" ";" ";" ";" "
"Organization";"Le Silo";"LocalBusiness";"https://www.communecter.org/#@leSilo";"https://www.communecter.org/api/organization/get/id/594e0fc240bb4eba4a87ab93";" ";"PostalAddress";"place de l’Église";"19400";"ARGENTAT";"19010";"FR";"GeoCoordinates";"45.0925642";"1.9378387";"Vrac";"Épicerie";"Produits biologiques";"leSilo";" ";" ";" ";" ";" ";" ";" ";" ";" ";" ";" ";" ";" ";" ";" ";" "
"Organization";"Bio c’ Bon";"LocalBusiness";"https://www.communecter.org/#@bioCBon18";"https://www.communecter.org/api/organization/get/id/594e0fc240bb4eba4a87ab97";"http://www.bio-c-bon.eu/fr";"PostalAddress";"38 boulevard de Strasbourg";"62000";"ARRAS";"62041";"FR";"GeoCoordinates";"50.2874879";"2.7781853";"Vrac";"Épicerie";"Produits biologiques";"bioCBon18";" ";" ";" ";" ";" ";" ";" ";" ";" ";" ";" ";" ";" ";" ";" ";" "
"Organization";"Biocoop Bio En Artois";"LocalBusiness";"https://www.communecter.org/#@biocoopBioEnArtois";"https://www.communecter.org/api/organization/get/id/594e0fc240bb4eba4a87ab9b";"http://biocoop.fr/";"PostalAddress";"10 voie Notre Dame de Lorrette";"62000";"ARRAS";"62041";"FR";"GeoCoordinates";"50.2978237";"2.7692256";"Vrac";"Épicerie";"Produits biologiques";"biocoopBioEnArtois";" ";" ";" ";" ";" ";" ";" ";" ";" ";" ";" ";" ";" ";" ";" ";" "
"Organization";"La Vie Claire";"LocalBusiness";"https://www.communecter.org/#@laVieClaire101";"https://www.communecter.org/api/organization/get/id/594e0fc240bb4eba4a87ab9f";"http://www.lavieclaire.com";"PostalAddress";"21 place des Héros";"62000";"ARRAS";"62041";"FR";"GeoCoordinates";"50.2911397";"2.7781863";"Vrac";"Épicerie";"Produits biologiques";"laVieClaire101";" ";" ";" ";" ";" ";" ";" ";" ";" ";" ";" ";" ";" ";" ";" ";" "
"Organization";"Biocoop Artigues";"LocalBusiness";"https://www.communecter.org/#@biocoopArtigues";"https://www.communecter.org/api/organization/get/id/594e0fc240bb4eba4a87aba3";"http://www.biocoop.fr/";"PostalAddress";"25 Avenue de l'Île de France";"33370";"ARTIGUES PRES BORDEAUX";"33013";"FR";"GeoCoordinates";"44.8467136";"-0.4967164";"Vrac";"Épicerie";"Produits biologiques";"biocoopArtigues";" ";"https://www.communecter.org/upload/communecter/organizations/594e0fc240bb4eba4a87aba3/logo-superm-P.png";"Magasin bio";"Accepte contenant";" ";" ";" ";" ";" ";" ";" ";" ";" ";" ";" ";" "
"Organization";"Primeur Le Bon Coing";"LocalBusiness";"https://www.communecter.org/#@primeurLeBonCoing";"https://www.communecter.org/api/organization/get/id/594e0fc240bb4eba4a87aba7";" ";"PostalAddress";"43 boulevard de la République";"33370";"ARTIGUES PRES BORDEAUX";"33013";"FR";"GeoCoordinates";"44.8770893";"-0.5232423";"Vrac";"Épicerie";"Produits biologiques";"primeurLeBonCoing";" ";"https://www.communecter.org/upload/communecter/organizations/594e0fc240bb4eba4a87aba7/logo-nourrir-veg-P.png";" ";" ";" ";" ";" ";" ";" ";" ";" ";" ";" ";" ";" ";" "
"Organization";"Biocoop";"LocalBusiness";"https://www.communecter.org/#@biocoop24";"https://www.communecter.org/api/organization/get/id/594e0fc240bb4eba4a87abab";"http://biocoop.fr/";"PostalAddress";"17 rue Pierre Brossolette";"92600";"ASNIERES SUR SEINE";"92004";"FR";"GeoCoordinates";"48.910935";"2.2919729";"Vrac";"Épicerie";"Produits biologiques";"biocoop24";" ";" ";" ";" ";" ";" ";" ";" ";" ";" ";" ";" ";" ";" ";" ";" "
"Organization";"Les Nouveaux Robinson";"LocalBusiness";"https://www.communecter.org/#@lesNouveauxRobinson1";"https://www.communecter.org/api/organization/get/id/594e0fc240bb4eba4a87abaf";"http://www.lesnouveauxrobinson.coop/";"PostalAddress";"41-43 avenue d’Argenteuil";"92600";"ASNIERES SUR SEINE";"92004";"FR";"GeoCoordinates";"48.9193213";"2.2803867";"Vrac";"Épicerie";"Produits biologiques";"lesNouveauxRobinson1";" ";" ";" ";" ";" ";" ";" ";" ";" ";" ";" ";" ";" ";" ";" ";" "
"Organization";"Les Nouveaux Robinsons Argenteuil";"LocalBusiness";"https://www.communecter.org/#@lesNouveauxRobinsonsArgenteuil";"https://www.communecter.org/api/organization/get/id/594e0fc240bb4eba4a87abb3";"http://www.lesnouveauxrobinson.coop/";"PostalAddress";"41 avenue d'Argenteuil";"92600";"ASNIERES SUR SEINE";"92004";"FR";"GeoCoordinates";"48.9193213";"2.2803867";"Vrac";"Épicerie";"Produits biologiques";"lesNouveauxRobinsonsArgenteuil";"Chez Les Nouveaux Robinsons Argenteuil vous trouverez des fruits et des légumes.";" ";" ";"Primeur";" ";" ";" ";" ";" ";" ";" ";" ";" ";" ";" ";" "
"Organization";"Biocoop Bioviveo";"LocalBusiness";"https://www.communecter.org/#@biocoopBioviveo1";"https://www.communecter.org/api/organization/get/id/594e0fc340bb4eba4a87abb7";"http://biocoop.fr/";"PostalAddress";"37 avenue François Mitterrand";"91200";"ATHIS MONS";"91027";"FR";"GeoCoordinates";"48.7143464";"2.3711194";"Vrac";"Épicerie";"Produits biologiques";"biocoopBioviveo1";" ";" ";" ";" ";" ";" ";" ";" ";" ";" ";" ";" ";" ";" ";" ";" "
"Organization";"Satoriz";"LocalBusiness";"https://www.communecter.org/#@satoriz13";"https://www.communecter.org/api/organization/get/id/594e0fc340bb4eba4a87abbb";"www.satoriz.fr";"PostalAddress";"2136 route de Gémenos";"13400";"AUBAGNE";"13005";"FR";"GeoCoordinates";"43.2972155";"5.5858311";"Vrac";"Épicerie";"Produits biologiques";"satoriz13";" ";" ";" ";" ";" ";" ";" ";" ";" ";" ";" ";" ";" ";" ";" ";" "
"Organization";"Biomonde Terrabio";"LocalBusiness";"https://www.communecter.org/#@biomondeTerrabio";"https://www.communecter.org/api/organization/get/id/594e0fc340bb4eba4a87abbf";"https://www.biomonde.fr/";"PostalAddress";"rue de la Sardonne ZA Moulon Ponson";"07200";"AUBENAS";"07019";"FR";"GeoCoordinates";"44.617112";"4.4033558";"Vrac";"Épicerie";"Produits biologiques";"biomondeTerrabio";" ";" ";" ";" ";" ";" ";" ";" ";" ";" ";" ";" ";" ";" ";" ";" "
"Organization";"La Vie Claire";"LocalBusiness";"https://www.communecter.org/#@laVieClaire102";"https://www.communecter.org/api/organization/get/id/594e0fc340bb4eba4a87abc3";"http://www.lavieclaire.com";"PostalAddress";"21 place de l’Hôtel de Ville";"07200";"AUBENAS";"07019";"FR";"GeoCoordinates";"44.6208087";"4.3894073";"Vrac";"Épicerie";"Produits biologiques";"laVieClaire102";" ";" ";" ";" ";" ";" ";" ";" ";" ";" ";" ";" ";" ";" ";" ";" "
"Organization";"La Vie Claire";"LocalBusiness";"https://www.communecter.org/#@laVieClaire103";"https://www.communecter.org/api/organization/get/id/594e0fc340bb4eba4a87abc7";"http://www.lavieclaire.com";"PostalAddress";"46 avenue Counon";"63170";"AUBIERE";"63014";"FR";"GeoCoordinates";"45.7531666";"3.13784";"Vrac";"Épicerie";"Produits biologiques";"laVieClaire103";" ";" ";" ";" ";" ";" ";" ";" ";" ";" ";" ";" ";" ";" ";" ";" "
"Organization";"Biomonde Ethiquète";"LocalBusiness";"https://www.communecter.org/#@biomondeEthiquete";"https://www.communecter.org/api/organization/get/id/594e0fc340bb4eba4a87abcb";"https://www.biomonde.fr/";"PostalAddress";"15 rue des Fusillés";"23200";"AUBUSSON";"23008";"FR";"GeoCoordinates";"45.9573825";"2.1741563";"Vrac";"Épicerie";"Produits biologiques";"biomondeEthiquete";" ";" ";" ";" ";" ";" ";" ";" ";" ";" ";" ";" ";" ";" ";" ";" "
"Organization";"Biocoop Les Jardins d’Augusta";"LocalBusiness";"https://www.communecter.org/#@biocoopLesJardinsDaugusta";"https://www.communecter.org/api/organization/get/id/594e0fc340bb4eba4a87abcf";"http://biocoop.fr/";"PostalAddress";"52 rue du 8 Mai 1945";"32000";"AUCH";"32013";"FR";"GeoCoordinates";"43.6576687";"0.5917808";"Vrac";"Épicerie";"Produits biologiques";"biocoopLesJardinsDaugusta";" ";" ";" ";" ";" ";" ";" ";" ";" ";" ";" ";" ";" ";" ";" ";" "
"Organization";"Biomonde";"LocalBusiness";"https://www.communecter.org/#@biomonde15";"https://www.communecter.org/api/organization/get/id/594e0fc340bb4eba4a87abd3";"https://www.biomonde.fr/";"PostalAddress";"27 rue du Bois d’Orly";"57685";"AUGNY";"57039";"FR";"GeoCoordinates";"49.075246";"6.10471242007446";"Vrac";"Épicerie";"Produits biologiques";"biomonde15";" ";" ";" ";" ";" ";" ";" ";" ";" ";" ";" ";" ";" ";" ";" ";" "
"Organization";"Naturalia";"LocalBusiness";"https://www.communecter.org/#@naturalia19";"https://www.communecter.org/api/organization/get/id/594e0fc340bb4eba4a87abd7";"http://www.naturalia.fr/";"PostalAddress";"12 impasse de Bondy";"93600";"AULNAY SOUS BOIS";"93005";"FR";"GeoCoordinates";"48.9307639";"2.4932242";"Vrac";"Épicerie";"Produits biologiques";"naturalia19";" ";" ";" ";" ";" ";" ";" ";" ";" ";" ";" ";" ";" ";" ";" ";" "
"Organization";"La Vie Claire";"LocalBusiness";"https://www.communecter.org/#@laVieClaire104";"https://www.communecter.org/api/organization/get/id/594e0fc340bb4eba4a87abdb";"http://www.lavieclaire.com";"PostalAddress";"15 avenue Dumont";"93600";"AULNAY SOUS BOIS";"93005";"FR";"GeoCoordinates";"48.9302967";"2.4952534";"Vrac";"Épicerie";"Produits biologiques";"laVieClaire104";" ";" ";" ";" ";" ";" ";" ";" ";" ";" ";" ";" ";" ";" ";" ";" "
"Organization";"La Vie Claire";"LocalBusiness";"https://www.communecter.org/#@laVieClaire105";"https://www.communecter.org/api/organization/get/id/594e0fc340bb4eba4a87abdf";"http://www.lavieclaire.com";"PostalAddress";"avenue de l’Océan";"56400";"AURAY";"56007";"FR";"GeoCoordinates";"47.6647664";"-2.9997122";"Vrac";"Épicerie";"Produits biologiques";"laVieClaire105";" ";" ";" ";" ";" ";" ";" ";" ";" ";" ";" ";" ";" ";" ";" ";" "
"Organization";"Alré Bio";"LocalBusiness";"https://www.communecter.org/#@alreBio";"https://www.communecter.org/api/organization/get/id/594e0fc340bb4eba4a87abe3";"http://www.alrebio.fr/";"PostalAddress";"8 rue d'Irlande";"56400";"AURAY";"56007";"FR";"GeoCoordinates";"47.6645585";"-3.0059249";"Vrac";"Épicerie";"Produits biologiques";"alreBio";"Chez Alré Bio vous trouverez fruits, légumes, viande, fromage, pain, cafés, thés, biscuits, céréales, fruits secs, chocolat, pâtes, riz, légumes secs, sucres, etc";" ";" ";" ";" ";" ";" ";" ";" ";" ";" ";" ";" ";" ";" ";" "
"Organization";"Biocoop L’Arbre à Pain";"LocalBusiness";"https://www.communecter.org/#@biocoopLarbreAPain";"https://www.communecter.org/api/organization/get/id/594e0fc340bb4eba4a87abe7";"http://biocoop.fr/";"PostalAddress";"150 avenue du Général Leclerc";"15000";"AURILLAC";"15014";"FR";"GeoCoordinates";"44.9051419";"2.4519795";"Vrac";"Épicerie";"Produits biologiques";"biocoopLarbreAPain";" ";" ";" ";" ";" ";" ";" ";" ";" ";" ";" ";" ";" ";" ";" ";" "
"Organization";"La Vie Claire";"LocalBusiness";"https://www.communecter.org/#@laVieClaire106";"https://www.communecter.org/api/organization/get/id/594e0fc340bb4eba4a87abeb";"http://www.lavieclaire.com";"PostalAddress";"2 avenue Georges Pompidou";"15000";"AURILLAC";"15014";"FR";"GeoCoordinates";"44.9128475";"2.4452391";"Vrac";"Épicerie";"Produits biologiques";"laVieClaire106";" ";" ";" ";" ";" ";" ";" ";" ";" ";" ";" ";" ";" ";" ";" ";" "
"Organization";"Biocoop Bio Estella";"LocalBusiness";"https://www.communecter.org/#@biocoopBioEstella";"https://www.communecter.org/api/organization/get/id/594e0fc340bb4eba4a87abef";"http://biocoop.fr/";"PostalAddress";"ZA Pont de Joux Bâtiment B2";"13390";"AURIOL";"13007";"FR";"GeoCoordinates";"43.3661166";"5.6109298";"Vrac";"Épicerie";"Produits biologiques";"biocoopBioEstella";" ";" ";" ";" ";" ";" ";" ";" ";" ";" ";" ";" ";" ";" ";" ";" "
"Organization";"Biomonde Moravn Bio";"LocalBusiness";"https://www.communecter.org/#@biomondeMoravnBio";"https://www.communecter.org/api/organization/get/id/594e0fc340bb4eba4a87abf3";"https://www.biomonde.fr/";"PostalAddress";"14 route de Château Chinon";"71400";"AUTUN";"71014";"FR";"GeoCoordinates";"46.9578054";"4.285993";"Vrac";"Épicerie";"Produits biologiques";"biomondeMoravnBio";" ";" ";" ";" ";" ";" ";" ";" ";" ";" ";" ";" ";" ";" ";" ";" "
"Organization";"Biocoop Germinal";"LocalBusiness";"https://www.communecter.org/#@biocoopGerminal2";"https://www.communecter.org/api/organization/get/id/594e0fc340bb4eba4a87abf7";"http://biocoop.fr/";"PostalAddress";"22 rue de Preuilly";"89000";"AUXERRE";"89024";"FR";"GeoCoordinates";"47.791778";"3.5801764";"Vrac";"Épicerie";"Produits biologiques";"biocoopGerminal2";" ";" ";" ";" ";" ";" ";" ";" ";" ";" ";" ";" ";" ";" ";" ";" "
"Organization";"La Vie Claire";"LocalBusiness";"https://www.communecter.org/#@laVieClaire107";"https://www.communecter.org/api/organization/get/id/594e0fc340bb4eba4a87abfb";"http://www.lavieclaire.com";"PostalAddress";"4 avenue de Worms zone des Clairions";"89000";"AUXERRE";"89024";"FR";"GeoCoordinates";"47.8144813";"3.5694995";"Vrac";"Épicerie";"Produits biologiques";"laVieClaire107";" ";" ";" ";" ";" ";" ";" ";" ";" ";" ";" ";" ";" ";" ";" ";" "
"Organization";"Botanic";"LocalBusiness";"https://www.communecter.org/#@botanic28";"https://www.communecter.org/api/organization/get/id/594e0fc340bb4eba4a87abff";"https://www.botanic.com/";"PostalAddress";"ZAC Les Bréandes Perrigny";"89000";"PERRIGNY";"89295";"FR";"GeoCoordinates";"47.8167507";"3.5589051";"Vrac";"Jardinerie";"Produits biologiques";"botanic28";"Jardinerie avec litière pour chat en vrac";" ";" ";" ";" ";" ";" ";" ";" ";" ";" ";" ";" ";" ";" ";" "
"Organization";"La Vie Claire";"LocalBusiness";"https://www.communecter.org/#@laVieClaire108";"https://www.communecter.org/api/organization/get/id/594e0fc340bb4eba4a87ac03";"http://www.lavieclaire.com";"PostalAddress";"9 rue de Paris";"89200";"AVALLON";"89025";"FR";"GeoCoordinates";"47.491111";"3.9078411";"Vrac";"Épicerie";"Produits biologiques";"laVieClaire108";" ";" ";" ";" ";" ";" ";" ";" ";" ";" ";" ";" ";" ";" ";" ";" "
"Organization";"Biocoop El Tout Bio";"LocalBusiness";"https://www.communecter.org/#@biocoopElToutBio";"https://www.communecter.org/api/organization/get/id/594e0fc340bb4eba4a87ac07";"http://biocoop.fr/";"PostalAddress";"1 rue Prisse D’Avesnes";"59440";"AVESNES SUR HELPE";"59036";"FR";"GeoCoordinates";"50.1266589";"3.9273458";"Vrac";"Épicerie";"Produits biologiques";"biocoopElToutBio";" ";" ";" ";" ";" ";" ";" ";" ";" ";" ";" ";" ";" ";" ";" ";" "
"Organization";"Biocoop Biotope";"LocalBusiness";"https://www.communecter.org/#@biocoopBiotope";"https://www.communecter.org/api/organization/get/id/594e0fc340bb4eba4a87ac0b";"http://biocoop.fr/";"PostalAddress";"5 route de Lyon Quartier Saint Lazare";"84000";"AVIGNON";"84007";"FR";"GeoCoordinates";"43.950581";"4.821343";"Vrac";"Épicerie";"Produits biologiques";"biocoopBiotope";" ";" ";" ";" ";" ";" ";" ";" ";" ";" ";" ";" ";" ";" ";" ";" "
"Organization";"Naturalia";"LocalBusiness";"https://www.communecter.org/#@naturalia20";"https://www.communecter.org/api/organization/get/id/594e0fc340bb4eba4a87ac0f";"http://www.naturalia.fr/";"PostalAddress";"54 rue de la Bonneterie";"84000";"AVIGNON";"84007";"FR";"GeoCoordinates";"43.9469757";"4.8101615";"Vrac";"Épicerie";"Produits biologiques";"naturalia20";" ";" ";" ";" ";" ";" ";" ";" ";" ";" ";" ";" ";" ";" ";" ";" "
"Organization";"Biocoop Avon-Fontainebleau";"LocalBusiness";"https://www.communecter.org/#@biocoopAvonfontainebleau";"https://www.communecter.org/api/organization/get/id/594e0fc340bb4eba4a87ac13";"http://biocoop.fr/";"PostalAddress";"1-3 avenue du Général De Gaulle";"77210";"AVON";"77014";"FR";"GeoCoordinates";"48.4179628";"2.7289499";"Vrac";"Épicerie";"Produits biologiques";"biocoopAvonfontainebleau";" ";" ";" ";" ";" ";" ";" ";" ";" ";" ";" ";" ";" ";" ";" ";" "
"Organization";"Biocoop Comptoir de la Bio";"LocalBusiness";"https://www.communecter.org/#@biocoopComptoirDeLaBio1";"https://www.communecter.org/api/organization/get/id/594e0fc340bb4eba4a87ac17";"http://biocoop.fr/";"PostalAddress";"27 place Patton";"50300";"AVRANCHES";"50025";"FR";"GeoCoordinates";"48.6811623";"-1.3551011";"Vrac";"Épicerie";"Produits biologiques";"biocoopComptoirDeLaBio1";" ";" ";" ";" ";" ";" ";" ";" ";" ";" ";" ";" ";" ";" ";" ";" "
"Organization";"Biocoop Caba";"LocalBusiness";"https://www.communecter.org/#@biocoopCaba";"https://www.communecter.org/api/organization/get/id/594e0fc340bb4eba4a87ac1b";"http://biocoop.fr/";"PostalAddress";"30 Ter avenue Pierre Mendès France";"49240";"AVRILLE";"49015";"FR";"GeoCoordinates";"47.501317";"-0.5843487";"Vrac";"Épicerie";"Produits biologiques";"biocoopCaba";" ";" ";" ";" ";" ";" ";" ";" ";" ";" ";" ";" ";" ";" ";" ";" "
"Organization";"Biocoop";"LocalBusiness";"https://www.communecter.org/#@biocoop25";"https://www.communecter.org/api/organization/get/id/594e0fc340bb4eba4a87ac1f";"http://biocoop.fr/";"PostalAddress";"La Loge Cité Bellevue";"37190";"AZAY LE RIDEAU";"37014";"FR";"GeoCoordinates";"47.266926";"0.473433";"Vrac";"Épicerie";"Produits biologiques";"biocoop25";" ";" ";" ";" ";" ";" ";" ";" ";" ";" ";" ";" ";" ";" ";" ";" "
"Organization";"Biocoop Bio Soleil";"LocalBusiness";"https://www.communecter.org/#@biocoopBioSoleil";"https://www.communecter.org/api/organization/get/id/594e0fc340bb4eba4a87ac23";"http://biocoop.fr/";"PostalAddress";"2 rue des Aillières";"53200";"AZE";"53014";"FR";"GeoCoordinates";"47.8379359";"-0.6899212";"Vrac";"Épicerie";"Produits biologiques";"biocoopBioSoleil";" ";" ";" ";" ";" ";" ";" ";" ";" ";" ";" ";" ";" ";" ";" ";" "
"Organization";"Bric à vrac";"LocalBusiness";"https://www.communecter.org/#@bricAVrac";"https://www.communecter.org/api/organization/get/id/594e0fc340bb4eba4a87ac27";"https://www.facebook.com/epiceriebricavrac/";"PostalAddress";"28 rue Général-de-Gaulle";"65200";"BAGNERES DE BIGORRE";"65059";"FR";"GeoCoordinates";"43.0669524";"0.1537654";"Vrac";"Épicerie";"Accepte Contenant";"bricAVrac";"Chez Bric à vrac vous trouverez fruits, légumes, café, thé, sucre, pain, fruits secs, biscuits, chocolat, épices, céréales, fromage, yaourts, oeufs, légumineuses, féculents, oléagnieux, etc";" ";" ";" ";" ";" ";" ";" ";" ";" ";" ";" ";" ";" ";" ";" "
"Organization";"La Vie Claire";"LocalBusiness";"https://www.communecter.org/#@laVieClaire109";"https://www.communecter.org/api/organization/get/id/594e0fc340bb4eba4a87ac2b";"http://www.lavieclaire.com";"PostalAddress";"carré de Bournan";"49400";"SAUMUR";"49328";"FR";"GeoCoordinates";"47.2383159";"-0.1009672";"Vrac";"Épicerie";"Produits biologiques";"laVieClaire109";" ";" ";" ";" ";" ";" ";" ";" ";" ";" ";" ";" ";" ";" ";" ";" "
"Organization";"Biocoop Mère Nature";"LocalBusiness";"https://www.communecter.org/#@biocoopMereNature";"https://www.communecter.org/api/organization/get/id/594e0fc340bb4eba4a87ac2f";"http://biocoop.fr/";"PostalAddress";"route de Saint Gervais";"30200";"BAGNOLS SUR CEZE";"30028";"FR";"GeoCoordinates";"44.1776119";"4.6180236";"Vrac";"Épicerie";"Produits biologiques";"biocoopMereNature";" ";" ";" ";" ";" ";" ";" ";" ";" ";" ";" ";" ";" ";" ";" ";" "
"Organization";"La Vie Claire";"LocalBusiness";"https://www.communecter.org/#@laVieClaire110";"https://www.communecter.org/api/organization/get/id/594e0fc340bb4eba4a87ac33";"http://www.lavieclaire.com";"PostalAddress";"ZAC Houelbourg Sud 2 ZI Jarry";"97122";"BAIE MAHAULT";"97103";"GP";"GeoCoordinates";"16.238353";"-61.570698";"Vrac";"Épicerie";"Produits biologiques";"laVieClaire110";"immeuble La Rotonde N°5";" ";" ";" ";" ";" ";" ";" ";" ";" ";" ";" ";" ";" ";" ";" "
"Organization";"Biocoop de l’Étang De Thau";"LocalBusiness";"https://www.communecter.org/#@biocoopDeLetangDeThau";"https://www.communecter.org/api/organization/get/id/594e0fc340bb4eba4a87ac37";"http://biocoop.fr/";"PostalAddress";"avenue de la Barrière";"34540";"BALARUC LE VIEUX";"34024";"FR";"GeoCoordinates";"43.4649292";"3.6916479";"Vrac";"Épicerie";"Produits biologiques";"biocoopDeLetangDeThau";" ";" ";" ";" ";" ";" ";" ";" ";" ";" ";" ";" ";" ";" ";" ";" "
"Organization";"Naturéo";"LocalBusiness";"https://www.communecter.org/#@natureo12";"https://www.communecter.org/api/organization/get/id/594e0fc340bb4eba4a87ac3b";"www.natureo-bio.fr/nos-magasins";"PostalAddress";"RN20 route de Chasse Les Bergers du Rouillon";"91160";"BALLAINVILLIERS";"91044";"FR";"GeoCoordinates";"48.6698";"2.284382";"Vrac";"Épicerie";"Produits biologiques";"natureo12";" ";" ";" ";" ";" ";" ";" ";" ";" ";" ";" ";" ";" ";" ";" ";" "
"Organization";"Biomonde Bio clair";"LocalBusiness";"https://www.communecter.org/#@biomondeBioClair";"https://www.communecter.org/api/organization/get/id/594e0fc340bb4eba4a87ac3f";"https://www.biomonde.fr/";"PostalAddress";"29 rue du Four";"55000";"BAR LE DUC";"55029";"FR";"GeoCoordinates";"48.7764572";"5.1604335";"Vrac";"Épicerie";"Produits biologiques";"biomondeBioClair";" ";" ";" ";" ";" ";" ";" ";" ";" ";" ";" ";" ";" ";" ";" ";" "
"Organization";"La Vie Claire";"LocalBusiness";"https://www.communecter.org/#@laVieClaire111";"https://www.communecter.org/api/organization/get/id/594e0fc340bb4eba4a87ac43";"http://www.lavieclaire.com";"PostalAddress";"28 rue Thiers";"10200";"BAR SUR AUBE";"10033";"FR";"GeoCoordinates";"48.2329834";"4.707286";"Vrac";"Épicerie";"Produits biologiques";"laVieClaire111";" ";" ";" ";" ";" ";" ";" ";" ";" ";" ";" ";" ";" ";" ";" ";" "
"Organization";"Biocoop Barcelo";"LocalBusiness";"https://www.communecter.org/#@biocoopBarcelo";"https://www.communecter.org/api/organization/get/id/594e0fc340bb4eba4a87ac47";"http://biocoop.fr/";"PostalAddress";"2 allée des Pins";"04400";"BARCELONNETTE";"04019";"FR";"GeoCoordinates";"44.3865398";"6.6345457";"Vrac";"Épicerie";"Produits biologiques";"biocoopBarcelo";" ";" ";" ";" ";" ";" ";" ";" ";" ";" ";" ";" ";" ";" ";" ";" "
"Organization";"Botanic";"LocalBusiness";"https://www.communecter.org/#@botanic29";"https://www.communecter.org/api/organization/get/id/594e0fc340bb4eba4a87ac4b";"https://www.botanic.com/";"PostalAddress";"ZC du Pont Long";"04400";"BARCELONNETTE";"04019";"FR";"GeoCoordinates";"44.3893084";"6.6656991";"Vrac";"Jardinerie";"Produits biologiques";"botanic29";"Jardinerie avec litière pour chat en vrac";" ";" ";" ";" ";" ";" ";" ";" ";" ";" ";" ";" ";" ";" ";" "
"Organization";"Biocoop Planète Bio";"LocalBusiness";"https://www.communecter.org/#@biocoopPlaneteBio";"https://www.communecter.org/api/organization/get/id/594e0fc340bb4eba4a87ac4f";"http://biocoop.fr/";"PostalAddress";"73 boulevard de Westphalie";"76360";"BARENTIN";"76057";"FR";"GeoCoordinates";"49.5318121";"0.9675387";"Vrac";"Épicerie";"Produits biologiques";"biocoopPlaneteBio";" ";" ";" ";" ";" ";" ";" ";" ";" ";" ";" ";" ";" ";" ";" ";" "
"Organization";"L’art Du Vrac";"LocalBusiness";"https://www.communecter.org/#@lartDuVrac";"https://www.communecter.org/api/organization/get/id/594e0fc340bb4eba4a87ac53";" ";"PostalAddress";"62 place Roger Salengro";"62620";"BARLIN";"62083";"FR";"GeoCoordinates";"50.4589281";"2.6141759";"Vrac";"Épicerie";"Produits biologiques";"lartDuVrac";" ";" ";" ";" ";" ";" ";" ";" ";" ";" ";" ";" ";" ";" ";" ";" "
"Organization";"Chlorophylle Bio Goulaine";"LocalBusiness";"https://www.communecter.org/#@chlorophylleBioGoulaine";"https://www.communecter.org/api/organization/get/id/594e0fc340bb4eba4a87ac57";" ";"PostalAddress";"5 rue de l’Atlantique Zone Pôle Sud";"44115";"BASSE GOULAINE";"44009";"FR";"GeoCoordinates";"47.186819";"-1.458176";"Vrac";"Épicerie";"Produits biologiques";"chlorophylleBioGoulaine";" ";" ";" ";" ";" ";" ";" ";" ";" ";" ";" ";" ";" ";" ";" ";" "
"Organization";"Au Panier Garni";"LocalBusiness";"https://www.communecter.org/#@auPanierGarni";"https://www.communecter.org/api/organization/get/id/594e0fc340bb4eba4a87ac5b";" ";"PostalAddress";"avenue Sampiero Corso";"20600";"BASTIA";"2B033";"FR";"GeoCoordinates";"42.6725703";"9.4436629";"Vrac";"Épicerie";"Produits biologiques";"auPanierGarni";" ";" ";" ";" ";" ";" ";" ";" ";" ";" ";" ";" ";" ";" ";" ";" "
"Organization";"La Vie Claire";"LocalBusiness";"https://www.communecter.org/#@laVieClaire112";"https://www.communecter.org/api/organization/get/id/594e0fc340bb4eba4a87ac5f";"http://www.lavieclaire.com";"PostalAddress";"4 rue d’Auray";"56150";"BAUD";"56010";"FR";"GeoCoordinates";"47.8698192";"-3.0217078";"Vrac";"Épicerie";"Produits biologiques";"laVieClaire112";" ";" ";" ";" ";" ";" ";" ";" ";" ";" ";" ";" ";" ";" ";" ";" "
"Organization";"Biocoop Bio Etika";"LocalBusiness";"https://www.communecter.org/#@biocoopBioEtika";"https://www.communecter.org/api/organization/get/id/594e0fc340bb4eba4a87ac63";"http://biocoop.fr/";"PostalAddress";"7 avenue Maréchal Juin";"64100";"BAYONNE";"64102";"FR";"GeoCoordinates";"43.4907261";"-1.46110395377741";"Vrac";"Épicerie";"Produits biologiques";"biocoopBioEtika";" ";" ";" ";" ";" ";" ";" ";" ";" ";" ";" ";" ";" ";" ";" ";" "
"Organization";"Biomonde L’épicier Bio";"LocalBusiness";"https://www.communecter.org/#@biomondeLepicierBio";"https://www.communecter.org/api/organization/get/id/594e0fc340bb4eba4a87ac67";"https://www.biomonde.fr/";"PostalAddress";"14 rue Raoul Perpère";"64100";"BAYONNE";"64102";"FR";"GeoCoordinates";"43.4908069";"-1.4921617";"Vrac";"Épicerie";"Produits biologiques";"biomondeLepicierBio";" ";" ";" ";" ";" ";" ";" ";" ";" ";" ";" ";" ";" ";" ";" ";" "
"Organization";"La Mesure";"LocalBusiness";"https://www.communecter.org/#@laMesure";"https://www.communecter.org/api/organization/get/id/594e0fc340bb4eba4a87ac6b";" ";"PostalAddress";"8 avenue du Maréchal Foch";"64100";"BAYONNE";"64102";"FR";"GeoCoordinates";"43.4937707";"-1.4808256";"Vrac";"Épicerie";"Produits biologiques";"laMesure";" ";" ";" ";" ";" ";" ";" ";" ";" ";" ";" ";" ";" ";" ";" ";" "
"Organization";"La Vie Claire";"LocalBusiness";"https://www.communecter.org/#@laVieClaire113";"https://www.communecter.org/api/organization/get/id/594e0fc340bb4eba4a87ac6f";"http://www.lavieclaire.com";"PostalAddress";"44 chemin de Sabalce";"64100";"BAYONNE";"64102";"FR";"GeoCoordinates";"43.4912144";"-1.4911137";"Vrac";"Épicerie";"Produits biologiques";"laVieClaire113";" ";" ";" ";" ";" ";" ";" ";" ";" ";" ";" ";" ";" ";" ";" ";" "
"Organization";"Biomonde";"LocalBusiness";"https://www.communecter.org/#@biomonde16";"https://www.communecter.org/api/organization/get/id/594e0fc340bb4eba4a87ac73";"https://www.biomonde.fr/";"PostalAddress";"35 avenue Jean Monnet";"30300";"BEAUCAIRE";"30032";"FR";"GeoCoordinates";"43.7918366";"4.6335611";"Vrac";"Épicerie";"Produits biologiques";"biomonde16";" ";" ";" ";" ";" ";" ";" ";" ";" ";" ";" ";" ";" ";" ";" ";" "
"Organization";"Botanic";"LocalBusiness";"https://www.communecter.org/#@botanic30";"https://www.communecter.org/api/organization/get/id/594e0fc340bb4eba4a87ac77";"https://www.botanic.com/";"PostalAddress";"PAE du Champ Madame";"63110";"BEAUMONT";"63032";"FR";"GeoCoordinates";"45.7460377";"3.0889481";"Vrac";"Jardinerie";"Produits biologiques";"botanic30";"Jardinerie avec litière pour chat en vrac";" ";" ";" ";" ";" ";" ";" ";" ";" ";" ";" ";" ";" ";" ";" "
"Organization";"La Vie Claire";"LocalBusiness";"https://www.communecter.org/#@laVieClaire114";"https://www.communecter.org/api/organization/get/id/594e0fc340bb4eba4a87ac7b";"http://www.lavieclaire.com";"PostalAddress";"32-34 place Madeleine";"21200";"BEAUNE";"21054";"FR";"GeoCoordinates";"47.0198953";"4.8444865";"Vrac";"Épicerie";"Produits biologiques";"laVieClaire114";" ";" ";" ";" ";" ";" ";" ";" ";" ";" ";" ";" ";" ";" ";" ";" "
"Organization";"Biocoop";"LocalBusiness";"https://www.communecter.org/#@biocoop26";"https://www.communecter.org/api/organization/get/id/594e0fc340bb4eba4a87ac7f";"http://biocoop.fr/";"PostalAddress";"49 rue Sainte Anne";"49600";"BEAUPREAU";"49023";"FR";"GeoCoordinates";"47.203679";"-0.977064";"Vrac";"Épicerie";"Produits biologiques";"biocoop26";" ";" ";" ";" ";" ";" ";" ";" ";" ";" ";" ";" ";" ";" ";" ";" "
"Organization";"La Vie Claire";"LocalBusiness";"https://www.communecter.org/#@laVieClaire115";"https://www.communecter.org/api/organization/get/id/594e0fc340bb4eba4a87ac83";"http://www.lavieclaire.com";"PostalAddress";"1 avenue Général De Gaulle";"06240";"BEAUSOLEIL";"06012";"FR";"GeoCoordinates";"43.7426868";"7.4255065";"Vrac";"Épicerie";"Produits biologiques";"laVieClaire115";" ";" ";" ";" ";" ";" ";" ";" ";" ";" ";" ";" ";" ";" ";" ";" "
"Organization";"Biocoop Au Panier Bio";"LocalBusiness";"https://www.communecter.org/#@biocoopAuPanierBio";"https://www.communecter.org/api/organization/get/id/594e0fc340bb4eba4a87ac87";"http://biocoop.fr/";"PostalAddress";"1 rue des Filatures";"60000";"BEAUVAIS";"60057";"FR";"GeoCoordinates";"49.4304713";"2.0703666";"Vrac";"Épicerie";"Produits biologiques";"biocoopAuPanierBio";" ";" ";" ";" ";" ";" ";" ";" ";" ";" ";" ";" ";" ";" ";" ";" "
"Organization";"AVracadaBio";"LocalBusiness";"https://www.communecter.org/#@avracadabio";"https://www.communecter.org/api/organization/get/id/594e0fc340bb4eba4a87ac8b";" ";"PostalAddress";"15 place Saint-Pierre";"60000";"BEAUVAIS";"60057";"FR";"GeoCoordinates";"49.4314022";"2.0828465";"Vrac";"Épicerie";"Produits biologiques";"avracadabio";" ";" ";" ";" ";" ";" ";" ";" ";" ";" ";" ";" ";" ";" ";" ";" "
"Organization";"Dr Knock";"LocalBusiness";"https://www.communecter.org/#@drKnock";"https://www.communecter.org/api/organization/get/id/594e0fc440bb4eba4a87ac8f";"http://docteur-knock.fr/";"PostalAddress";"43 rue du 19 mars 1962";"33130";"BEGLES";"33039";"FR";"GeoCoordinates";"44.8018656";"-0.5565281";"Vrac";"Épicerie";"Produits biologiques";"drKnock";"Chez Dr Knock vous trouverez une grande gamme de produits du mardi au samedi de 9h30 à 13h et de 15h30 à 19h30. Il vous est possible d'apporter vos contenants et aucun contenant n'est proposé.";"https://www.communecter.org/upload/communecter/organizations/594e0fc440bb4eba4a87ac8f/logo-epicerie-vrac-P.png";" ";"Accepte Contenant";" ";" ";" ";" ";" ";" ";" ";" ";" ";" ";" ";" "
"Organization";"Biocoop";"LocalBusiness";"https://www.communecter.org/#@biocoop27";"https://www.communecter.org/api/organization/get/id/594e0fc440bb4eba4a87ac93";"http://biocoop.fr/";"PostalAddress";"25 avenue de l’Île de France";"33130";"BEGLES";"33039";"FR";"GeoCoordinates";"44.8062705";"-0.5523803";"Vrac";"Épicerie";"Produits biologiques";"biocoop27";" ";"https://www.communecter.org/upload/communecter/organizations/594e0fc440bb4eba4a87ac93/logo-superm-P.png";"Magasin bio";"Accepte contenant";" ";" ";" ";" ";" ";" ";" ";" ";" ";" ";" ";" "
"Organization";"Biocoop Le Grenier Vert";"LocalBusiness";"https://www.communecter.org/#@biocoopLeGrenierVert";"https://www.communecter.org/api/organization/get/id/594e0fc440bb4eba4a87ac97";"http://biocoop.fr/";"PostalAddress";"9 avenue du Général De Gaulle";"90000";"BELFORT";"90010";"FR";"GeoCoordinates";"47.6285708";"6.8634918";"Vrac";"Épicerie";"Produits biologiques";"biocoopLeGrenierVert";"ZAC du Bois de l’Arsot";" ";" ";" ";" ";" ";" ";" ";" ";" ";" ";" ";" ";" ";" ";" "
"Organization";"Côté Nature";"LocalBusiness";"https://www.communecter.org/#@coteNature";"https://www.communecter.org/api/organization/get/id/594e0fc440bb4eba4a87ac9b";" ";"PostalAddress";"59 Rue de Besançon";"90000";"BELFORT";"90010";"FR";"GeoCoordinates";"47.6281704";"6.8574562";"Vrac";"Épicerie";"Produits biologiques";"coteNature";" ";" ";" ";" ";" ";" ";" ";" ";" ";" ";" ";" ";" ";" ";" ";" "
"Organization";"La Vie Claire";"LocalBusiness";"https://www.communecter.org/#@laVieClaire116";"https://www.communecter.org/api/organization/get/id/594e0fc440bb4eba4a87ac9f";"http://www.lavieclaire.com";"PostalAddress";"138 avenue Jean Jaurès";"90000";"BELFORT";"90010";"FR";"GeoCoordinates";"47.6578875";"6.8448572";"Vrac";"Épicerie";"Produits biologiques";"laVieClaire116";" ";" ";" ";" ";" ";" ";" ";" ";" ";" ";" ";" ";" ";" ";" ";" "
"Organization";"La Vie Claire";"LocalBusiness";"https://www.communecter.org/#@laVieClaire117";"https://www.communecter.org/api/organization/get/id/594e0fc440bb4eba4a87aca3";"http://www.lavieclaire.com";"PostalAddress";"22 rue de la République";"01300";"BELLEY";"01034";"FR";"GeoCoordinates";"45.7591913";"5.6859377";"Vrac";"Épicerie";"Produits biologiques";"laVieClaire117";" ";" ";" ";" ";" ";" ";" ";" ";" ";" ";" ";" ";" ";" ";" ";" "
"Organization";"Biocoop La Belz’Saison";"LocalBusiness";"https://www.communecter.org/#@biocoopLaBelzsaison";"https://www.communecter.org/api/organization/get/id/594e0fc440bb4eba4a87aca7";"http://biocoop.fr/";"PostalAddress";"17 Bis rue Gutenberg PA de la Ria d’Etel";"56550";"BELZ";"56013";"FR";"GeoCoordinates";"47.6695466";"-3.1858772";"Vrac";"Épicerie";"Produits biologiques";"biocoopLaBelzsaison";" ";" ";" ";" ";" ";" ";" ";" ";" ";" ";" ";" ";" ";" ";" ";" "
"Organization";"Biocoop Bergerac Bio";"LocalBusiness";"https://www.communecter.org/#@biocoopBergeracBio";"https://www.communecter.org/api/organization/get/id/594e0fc440bb4eba4a87acab";"http://biocoop.fr/";"PostalAddress";"71 avenue Paul Doumer";"24100";"BERGERAC";"24037";"FR";"GeoCoordinates";"44.8398463";"0.4799921";"Vrac";"Épicerie";"Produits biologiques";"biocoopBergeracBio";" ";" ";" ";" ";" ";" ";" ";" ";" ";" ";" ";" ";" ";" ";" ";" "
"Organization";"La Vie Claire";"LocalBusiness";"https://www.communecter.org/#@laVieClaire118";"https://www.communecter.org/api/organization/get/id/594e0fc440bb4eba4a87acaf";"http://www.lavieclaire.com";"PostalAddress";"45 rue Michel Hubert";"27300";"BERNAY";"27056";"FR";"GeoCoordinates";"49.0896458";"0.5971329";"Vrac";"Épicerie";"Produits biologiques";"laVieClaire118";" ";" ";" ";" ";" ";" ";" ";" ";" ";" ";" ";" ";" ";" ";" ";" "
"Organization";"Biocoop La Canopée";"LocalBusiness";"https://www.communecter.org/#@biocoopLaCanopee1";"https://www.communecter.org/api/organization/get/id/594e0fc440bb4eba4a87acb3";"http://biocoop.fr/";"PostalAddress";"3 Allée de L’Île aux Moineaux";"25000";"BESANCON";"25056";"FR";"GeoCoordinates";"47.239872";"6.0343095";"Vrac";"Épicerie";"Produits biologiques";"biocoopLaCanopee1";" ";" ";" ";" ";" ";" ";" ";" ";" ";" ";" ";" ";" ";" ";" ";" "
"Organization";"L’eau Vive";"LocalBusiness";"https://www.communecter.org/#@leauVive25";"https://www.communecter.org/api/organization/get/id/594e0fc440bb4eba4a87acb7";"www.eau-vive.fr";"PostalAddress";"8 rue Louis Aragn ZAC de Châteaufarine";"25000";"BESANCON";"25056";"FR";"GeoCoordinates";"47.2165913";"5.9437644";"Vrac";"Épicerie";"Produits biologiques";"leauVive25";" ";" ";" ";" ";" ";" ";" ";" ";" ";" ";" ";" ";" ";" ";" ";" "
"Organization";"Le vrac";"LocalBusiness";"https://www.communecter.org/#@leVrac";"https://www.communecter.org/api/organization/get/id/594e0fc440bb4eba4a87acbf";" ";"PostalAddress";"90 rue des granges";"25000";"BESANCON";"25056";"FR";"GeoCoordinates";"47.236937";"6.02849";"Vrac";"Épicerie";"Accepte Contenant";"leVrac";"Chez Le Vrac vous trouverez fruits, légumes, céréales, légumineuses, fruits secs, levure maltée, fromage, olives, pains, biscuits et baies de goji,";" ";" ";"100% Vrac";"ZDB MCZD";" ";" ";" ";" ";" ";" ";" ";" ";" ";" ";" "
"Organization";"La Vie Claire";"LocalBusiness";"https://www.communecter.org/#@laVieClaire119";"https://www.communecter.org/api/organization/get/id/594e0fc440bb4eba4a87acc3";"http://www.lavieclaire.com";"PostalAddress";"559 boulevard Raymond Poincaré";"62400";"BETHUNE";"62119";"FR";"GeoCoordinates";"50.5282634";"2.6403076";"Vrac";"Épicerie";"Produits biologiques";"laVieClaire119";" ";" ";" ";" ";" ";" ";" ";" ";" ";" ";" ";" ";" ";" ";" ";" "
"Organization";"Esprit Vrac";"LocalBusiness";"https://www.communecter.org/#@espritVrac";"https://www.communecter.org/api/organization/get/id/594e0fc440bb4eba4a87acc7";"http://www.espritvrac.fr/";"PostalAddress";"1 Grand Rue";"67660";"BETSCHDORF";"67339";"FR";"GeoCoordinates";"48.8988731";"7.915889";"Vrac";"Épicerie";"Accepte Contenant";"espritVrac";" ";" ";" ";"100% Vrac";" ";" ";" ";" ";" ";" ";" ";" ";" ";" ";" ";" "
"Organization";"La Vie Claire";"LocalBusiness";"https://www.communecter.org/#@laVieClaire120";"https://www.communecter.org/api/organization/get/id/594e0fc440bb4eba4a87accb";"http://www.lavieclaire.com";"PostalAddress";"rue du Prè Caillat ZAC des Batterses";"01700";"BEYNOST";"01043";"FR";"GeoCoordinates";"45.8230848";"4.9937988";"Vrac";"Épicerie";"Produits biologiques";"laVieClaire120";" ";" ";" ";" ";" ";" ";" ";" ";" ";" ";" ";" ";" ";" ";" ";" "
"Organization";"Biocoop Pais d’Oc";"LocalBusiness";"https://www.communecter.org/#@biocoopPaisDoc";"https://www.communecter.org/api/organization/get/id/594e0fc440bb4eba4a87accf";"http://biocoop.fr/";"PostalAddress";"150 route de Pézenas";"34500";"BEZIERS";"34032";"FR";"GeoCoordinates";"43.357612";"3.24347677563723";"Vrac";"Épicerie";"Produits biologiques";"biocoopPaisDoc";" ";" ";" ";" ";" ";" ";" ";" ";" ";" ";" ";" ";" ";" ";" ";" "
"Organization";"La Vie Claire";"LocalBusiness";"https://www.communecter.org/#@laVieClaire121";"https://www.communecter.org/api/organization/get/id/594e0fc440bb4eba4a87acd3";"http://www.lavieclaire.com";"PostalAddress";"7 place Jean Jaurès";"34500";"BEZIERS";"34032";"FR";"GeoCoordinates";"43.34130855";"3.21669943730213";"Vrac";"Épicerie";"Produits biologiques";"laVieClaire121";" ";" ";" ";" ";" ";" ";" ";" ";" ";" ";" ";" ";" ";" ";" ";" "
"Organization";"L’eau Vive";"LocalBusiness";"https://www.communecter.org/#@leauVive26";"https://www.communecter.org/api/organization/get/id/594e0fc440bb4eba4a87acd7";"www.eau-vive.fr";"PostalAddress";"3 impasse de la Giniesse ZAC de la Giniesse";"34500";"BEZIERS";"34032";"FR";"GeoCoordinates";"43.346145";"3.2577253";"Vrac";"Épicerie";"Produits biologiques";"leauVive26";" ";" ";" ";" ";" ";" ";" ";" ";" ";" ";" ";" ";" ";" ";" ";" "
"Organization";"La Vie Claire";"LocalBusiness";"https://www.communecter.org/#@laVieClaire122";"https://www.communecter.org/api/organization/get/id/594e0fc440bb4eba4a87acdb";"http://www.lavieclaire.com";"PostalAddress";"3 avenue Victor Hugo";"64200";"BIARRITZ";"64122";"FR";"GeoCoordinates";"43.4817393";"-1.5610638";"Vrac";"Épicerie";"Produits biologiques";"laVieClaire122";" ";" ";" ";" ";" ";" ";" ";" ";" ";" ";" ";" ";" ";" ";" ";" "
"Organization";"L’eau Vive";"LocalBusiness";"https://www.communecter.org/#@leauVive27";"https://www.communecter.org/api/organization/get/id/594e0fc440bb4eba4a87acdf";"www.eau-vive.fr";"PostalAddress";"route de Bayonne";"64210";"BIDART";"64125";"FR";"GeoCoordinates";"43.4497179";"-1.5692309";"Vrac";"Épicerie";"Produits biologiques";"leauVive27";" ";" ";" ";" ";" ";" ";" ";" ";" ";" ";" ";" ";" ";" ";" ";" "
"Organization";"Biocoop Rives d’Arcins";"LocalBusiness";"https://www.communecter.org/#@biocoopRivesDarcins";"https://www.communecter.org/api/organization/get/id/594e0fc440bb4eba4a87ace3";"http://biocoop.fr/";"PostalAddress";"1 rue des Frères Lumières CC Régional Rives d’Arcins";"33380";"BIGANOS";"33051";"FR";"GeoCoordinates";"44.6440908";"-0.9696271";"Vrac";"Épicerie";"Produits biologiques";"biocoopRivesDarcins";" ";"https://www.communecter.org/upload/communecter/organizations/594e0fc440bb4eba4a87ace3/logo-superm-P.png";"Magasin bio";"Accepte contenant";" ";" ";" ";" ";" ";" ";" ";" ";" ";" ";" ";" "
"Organization";"So Bio Biganos";"LocalBusiness";"https://www.communecter.org/#@soBioBiganos";"https://www.communecter.org/api/organization/get/id/594e0fc440bb4eba4a87ace7";"http://www.sobio.fr/magasin/biganos";"PostalAddress";"28a rue des Fonderies";"33380";"BIGANOS";"33051";"FR";"GeoCoordinates";"44.637924";"-0.9614101";"Vrac";"Épicerie";"Produits biologiques";"soBioBiganos";"Chez So Bio Biganos vous trouverez fruits, légumes, viande, fromage, légumineuses, fruits secs, féculents et graines";"https://www.communecter.org/upload/communecter/organizations/594e0fc440bb4eba4a87ace7/logo-superm-P.png";"Magasin bio";"Accepte Contenant";" ";" ";" ";" ";" ";" ";" ";" ";" ";" ";" ";" "
"Organization";"Bio c’ Bon";"LocalBusiness";"https://www.communecter.org/#@bioCBon19";"https://www.communecter.org/api/organization/get/id/594e0fc440bb4eba4a87aceb";"http://www.bio-c-bon.eu/fr";"PostalAddress";"39 routes des Lacs";"33380";"BIGANOS";"33051";"FR";"GeoCoordinates";"44.6335068";"-0.9627641";"Vrac";"Épicerie";"Produits biologiques";"bioCBon19";" ";"https://www.communecter.org/upload/communecter/organizations/594e0fc440bb4eba4a87aceb/logo-superm-P.png";" ";"Accepte contenant";" ";" ";" ";" ";" ";" ";" ";" ";" ";" ";" ";" "
"Organization";"Biocoop Panier Du Béarn";"LocalBusiness";"https://www.communecter.org/#@biocoopPanierDuBearn";"https://www.communecter.org/api/organization/get/id/594e0fc440bb4eba4a87acef";"http://biocoop.fr/";"PostalAddress";"59 route de Bayonne";"31110";"BILLIERE";"31068";"FR";"GeoCoordinates";"42.8114461";"0.5278735";"Vrac";"Épicerie";"Produits biologiques";"biocoopPanierDuBearn";" ";" ";" ";" ";" ";" ";" ";" ";" ";" ";" ";" ";" ";" ";" ";" "
"Organization";"La Vie Claire";"LocalBusiness";"https://www.communecter.org/#@laVieClaire123";"https://www.communecter.org/api/organization/get/id/594e0fc440bb4eba4a87acf3";"http://www.lavieclaire.com";"PostalAddress";"résidence Le Point Gascon 246 avenue Alphonse Daudet";"40600";"BISCARROSSE";"40046";"FR";"GeoCoordinates";"44.3952121";"-1.1634778";"Vrac";"Épicerie";"Produits biologiques";"laVieClaire123";" ";"https://www.communecter.org/upload/communecter/organizations/594e0fc440bb4eba4a87acf3/logo-epicerie-vrac-P.png";" ";" ";" ";" ";" ";" ";" ";" ";" ";" ";" ";" ";" ";" "
"Organization";"L’eau Vive";"LocalBusiness";"https://www.communecter.org/#@leauVive28";"https://www.communecter.org/api/organization/get/id/594e0fc440bb4eba4a87acf7";"www.eau-vive.fr";"PostalAddress";"47 route de Tarbes";"64320";"BIZANOS";"64132";"FR";"GeoCoordinates";"43.3030965";"-0.3209974";"Vrac";"Épicerie";"Produits biologiques";"leauVive28";" ";" ";" ";" ";" ";" ";" ";" ";" ";" ";" ";" ";" ";" ";" ";" "
"Organization";"Botanic";"LocalBusiness";"https://www.communecter.org/#@botanic31";"https://www.communecter.org/api/organization/get/id/594e0fc440bb4eba4a87acfb";"https://www.botanic.com/";"PostalAddress";"rue Denis Diderot ZAC du Grand Noble";"31700";"BLAGNAC";"31069";"FR";"GeoCoordinates";"43.648802";"1.370253";"Vrac";"Jardinerie";"Produits biologiques";"botanic31";"Jardinerie avec litière pour chat en vrac";" ";" ";" ";" ";" ";" ";" ";" ";" ";" ";" ";" ";" ";" ";" "
"Organization";"Biocoop Biocinelle";"LocalBusiness";"https://www.communecter.org/#@biocoopBiocinelle";"https://www.communecter.org/api/organization/get/id/594e0fc440bb4eba4a87acff";"http://biocoop.fr/";"PostalAddress";"39 rue de Nantes";"44130";"BLAIN";"44015";"FR";"GeoCoordinates";"47.4754064";"-1.7590934";"Vrac";"Épicerie";"Produits biologiques";"biocoopBiocinelle";" ";" ";" ";" ";" ";" ";" ";" ";" ";" ";" ";" ";" ";" ";" ";" "
"Organization";"Biocoop L’épi Vert";"LocalBusiness";"https://www.communecter.org/#@biocoopLepiVert";"https://www.communecter.org/api/organization/get/id/594e0fc440bb4eba4a87ad03";"http://biocoop.fr/";"PostalAddress";"27 rue des Flandres";"41000";"BLOIS";"41018";"FR";"GeoCoordinates";"47.5982529";"1.3359122";"Vrac";"Épicerie";"Produits biologiques";"biocoopLepiVert";" ";" ";" ";" ";" ";" ";" ";" ";" ";" ";" ";" ";" ";" ";" ";" "
"Organization";"La Caf’Thé";"LocalBusiness";"https://www.communecter.org/#@laCafthe";"https://www.communecter.org/api/organization/get/id/594e0fc440bb4eba4a87ad07";" ";"PostalAddress";"14 rue du Commerce";"41000";"BLOIS";"41018";"FR";"GeoCoordinates";"47.5868006";"1.3333058";"Vrac";"Épicerie";"Thé Café";"laCafthe";" ";" ";" ";" ";" ";" ";" ";" ";" ";" ";" ";" ";" ";" ";" ";" "
"Organization";"Biocoop Pré Vert";"LocalBusiness";"https://www.communecter.org/#@biocoopPreVert";"https://www.communecter.org/api/organization/get/id/594e0fc440bb4eba4a87ad0b";"http://biocoop.fr/";"PostalAddress";"22 avenue de la Capelette";"47550";"BOE";"47031";"FR";"GeoCoordinates";"44.178624";"0.6318617";"Vrac";"Épicerie";"Produits biologiques";"biocoopPreVert";" ";" ";" ";" ";" ";" ";" ";" ";" ";" ";" ";" ";" ";" ";" ";" "
"Organization";"So Bio Agen";"LocalBusiness";"https://www.communecter.org/#@soBioAgen";"https://www.communecter.org/api/organization/get/id/594e0fc440bb4eba4a87ad0f";"http://www.sobio.fr/magasin/agen";"PostalAddress";"84 avenue de Bigorre";"47550";"BOE";"47031";"FR";"GeoCoordinates";"44.1805834";"0.6333722";"Vrac";"Épicerie";"Produits biologiques";"soBioAgen";"Chez So Bio Agen vous trouverez fruits, légumes, viande, fromage, légumineuses, fruits secs, féculents et graines";" ";" ";"Accepte Contenant";" ";" ";" ";" ";" ";" ";" ";" ";" ";" ";" ";" "
"Organization";"Bio c’ Bon";"LocalBusiness";"https://www.communecter.org/#@bioCBon20";"https://www.communecter.org/api/organization/get/id/594e0fc440bb4eba4a87ad13";"http://www.bio-c-bon.eu/fr";"PostalAddress";"2 bis place Gabriel Péri";"92270";"BOIS COLOMBES";"92009";"FR";"GeoCoordinates";"48.91346945";"2.27278206930136";"Vrac";"Épicerie";"Produits biologiques";"bioCBon20";" ";" ";" ";" ";" ";" ";" ";" ";" ";" ";" ";" ";" ";" ";" ";" "
"Organization";"Biocoop Les Bruyères";"LocalBusiness";"https://www.communecter.org/#@biocoopLesBruyeres";"https://www.communecter.org/api/organization/get/id/594e0fc440bb4eba4a87ad17";"http://biocoop.fr/";"PostalAddress";"5 rue Hispano Suiza";"92270";"BOIS COLOMBES";"92009";"FR";"GeoCoordinates";"48.9083801";"2.2613287";"Vrac";"Épicerie";"Produits biologiques";"biocoopLesBruyeres";" ";" ";" ";" ";" ";" ";" ";" ";" ";" ";" ";" ";" ";" ";" ";" "
"Organization";"Naturalia";"LocalBusiness";"https://www.communecter.org/#@naturalia22";"https://www.communecter.org/api/organization/get/id/594e0fc440bb4eba4a87ad1b";"http://www.naturalia.fr/";"PostalAddress";"85-89 rue des Bourguignons";"92270";"BOIS COLOMBES";"92009";"FR";"GeoCoordinates";"48.9153503";"2.2755957";"Vrac";"Épicerie";"Produits biologiques";"naturalia22";" ";" ";" ";" ";" ";" ";" ";" ";" ";" ";" ";" ";" ";" ";" ";" "
"Organization";"Bio c' Bon Bois-Colombes";"LocalBusiness";"https://www.communecter.org/#@bioCBonBoiscolombes";"https://www.communecter.org/api/organization/get/id/594e0fc440bb4eba4a87ad1f";"http://www.bio-c-bon.eu/fr";"PostalAddress";"2 bis, place Gabriel Péri";"92270";"BOIS COLOMBES";"92009";"FR";"GeoCoordinates";"48.91346945";"2.27278206930136";"Vrac";"Épicerie";"Produits biologiques";"bioCBonBoiscolombes";"Chez Bio c' Bon Bois-Colombes il n'est pas possible d'apporter ses contenants et aucun contenant n'est proposé.";" ";" ";" ";" ";" ";" ";" ";" ";" ";" ";" ";" ";" ";" ";" "
"Organization";"Biocoop Planète Bio";"LocalBusiness";"https://www.communecter.org/#@biocoopPlaneteBio1";"https://www.communecter.org/api/organization/get/id/594e0fc440bb4eba4a87ad23";"http://biocoop.fr/";"PostalAddress";"45 rue Georges de Buffon avenue de l’Europe";"76230";"BOIS GUILLAUME";"76108";"FR";"GeoCoordinates";"49.4750042";"1.1096606";"Vrac";"Épicerie";"Produits biologiques";"biocoopPlaneteBio1";" ";" ";" ";" ";" ";" ";" ";" ";" ";" ";" ";" ";" ";" ";" ";" "
"Organization";"Biomonde L’épicerie Bio Des Tourelles";"LocalBusiness";"https://www.communecter.org/#@biomondeLepicerieBioDesTourelles";"https://www.communecter.org/api/organization/get/id/594e0fc440bb4eba4a87ad27";"https://www.biomonde.fr/";"PostalAddress";"22 rue Courtanesse";"91790";"BOISSY SOUS ST YON";"91085";"FR";"GeoCoordinates";"48.5589451";"2.2081148";"Vrac";"Épicerie";"Produits biologiques";"biomondeLepicerieBioDesTourelles";" ";" ";" ";" ";" ";" ";" ";" ";" ";" ";" ";" ";" ";" ";" ";" "
"Organization";"Biocoop Bio Tea Full";"LocalBusiness";"https://www.communecter.org/#@biocoopBioTeaFull";"https://www.communecter.org/api/organization/get/id/594e0fc440bb4eba4a87ad2b";"http://biocoop.fr/";"PostalAddress";"313 route de la Forêt Les Grands Horizons";"66210";"BOLQUERE";"66020";"FR";"GeoCoordinates";"42.5143009";"2.0604112";"Vrac";"Épicerie";"Produits biologiques";"biocoopBioTeaFull";" ";" ";" ";" ";" ";" ";" ";" ";" ";" ";" ";" ";" ";" ";" ";" "
"Organization";"Biocoop Biococcinelle";"LocalBusiness";"https://www.communecter.org/#@biocoopBiococcinelle";"https://www.communecter.org/api/organization/get/id/594e0fc440bb4eba4a87ad33";"http://biocoop.fr/";"PostalAddress";"42 Bis avenue de la Mairie";"42160";"BONSON";"42022";"FR";"GeoCoordinates";"45.5230557";"4.2160185";"Vrac";"Épicerie";"Produits biologiques";"biocoopBiococcinelle";" ";" ";" ";" ";" ";" ";" ";" ";" ";" ";" ";" ";" ";" ";" ";" "
"Organization";"Chocolats Georges Larnicol - Bordeaux";"LocalBusiness";"https://www.communecter.org/#@chocolatsGeorgesLarnicolBordeaux";"https://www.communecter.org/api/organization/get/id/594e0fc440bb4eba4a87ad37";"http://www.chocolaterielarnicol.fr/";"PostalAddress";"1 cours de l'Intendance";"33000";"BORDEAUX";"33063";"FR";"GeoCoordinates";"44.8421772";"-0.5747971";"Chocolaterie";"Accepte contenant";" ";"chocolatsGeorgesLarnicolBordeaux";"Chez Chocolats Georges Larnicol, vous trouverez des biscuits et du chocolat. Aucun contenant n'est proposé.";"https://www.communecter.org/upload/communecter/organizations/594e0fc440bb4eba4a87ad37/logo-vrac-P.png";" ";" ";" ";" ";" ";" ";" ";" ";" ";" ";" ";" ";" ";" "
"Organization";"Bobi";"LocalBusiness";"https://www.communecter.org/#@bobi";"https://www.communecter.org/api/organization/get/id/594e0fc440bb4eba4a87ad3b";"https://www.facebook.com/BOBI-1772313933022381/";"PostalAddress";"111 rue de la Benauge";"33100";"BORDEAUX";"undefined";"FR";"GeoCoordinates";"44.840421";"-0.553736";"Vrac";"Épicerie";"Accepte contenant";"bobi";"- Fruits et légumes de saison bio ou en permaculture
- Thés et café
- Jus de pomme bio, limonade bio ou bière locale
- Chocolats
- Légumes secs en vrac
-Farine et sucre en vrac
- Piment d'espelette AOP en poudre
- Charcuterie et fromage basque
- Beurre
- Vins
- Miel bio
- Conserves basques
- Sandwichs
- Soupes
- Samoussas
- Desserts maison
- Pains bio
- Lait
- Yaourt brassés
- Oeufs
- Pâtes à tartiner
- ETC.";"https://www.communecter.org/upload/communecter/organizations/594e0fc440bb4eba4a87ad3b/logo-epicerie-vrac-P.png";"Épicerie";"Quartier ZZ";" ";" ";" ";" ";" ";" ";" ";" ";" ";" ";" ";" "
"Organization";"Maison Hegara";"LocalBusiness";"https://www.communecter.org/#@maisonHegara";"https://www.communecter.org/api/organization/get/id/594e0fc440bb4eba4a87ad3f";"http://www.maisonhegara.com/";"PostalAddress";"14 cours Portal";"33000";"BORDEAUX";"33063";"FR";"GeoCoordinates";"44.8525393";"-0.5731868";"Vrac";"Épicerie";"Accepte contenant";"maisonHegara";" ";"https://www.communecter.org/upload/communecter/organizations/594e0fc440bb4eba4a87ad3f/logo-vrac-P.png";" ";"Produits biologiques";" ";" ";" ";" ";" ";" ";" ";" ";" ";" ";" ";" "
"Organization";"La Vie Claire";"LocalBusiness";"https://www.communecter.org/#@laVieClaire124";"https://www.communecter.org/api/organization/get/id/594e0fc440bb4eba4a87ad43";"http://www.lavieclaire.com";"PostalAddress";"163 avenue Louis Barthou";"33000";"BORDEAUX";"33063";"FR";"GeoCoordinates";"44.8514838";"-0.6098542";"Vrac";"Épicerie";"Produits biologiques";"laVieClaire124";" ";"https://www.communecter.org/upload/communecter/organizations/594e0fc440bb4eba4a87ad43/logo-superm-P.png";"Magasin bio";"Accepte contenant";" ";" ";" ";" ";" ";" ";" ";" ";" ";" ";" ";" "
"Organization";"Famille Mary";"LocalBusiness";"https://www.communecter.org/#@familleMary11";"https://www.communecter.org/api/organization/get/id/594e0fc440bb4eba4a87ad47";"https://www.famillemary.fr/bordeaux";"PostalAddress";"23 rue des Trois Conils";"33000";"BORDEAUX";"33063";"FR";"GeoCoordinates";"44.8388283";"-0.575392";"Vrac";"Épicerie";"Miel";"familleMary11";"Épicerie spécialisée (miel confiture, pollen, propolis)";"https://www.communecter.org/upload/communecter/organizations/594e0fc440bb4eba4a87ad47/logo-vrac-P.png";" ";"Cosmétique";"Accepte contenant";" ";" ";" ";" ";" ";" ";" ";" ";" ";" ";" "
"Organization";"Épicerie Domergue";"LocalBusiness";"https://www.communecter.org/#@epicerieDomergue";"https://www.communecter.org/api/organization/get/id/594e0fc440bb4eba4a87ad4b";"https://www.facebook.com/pages/Epicerie-Domergue/387800144666811";"PostalAddress";"24 Avenue Thiers";"33100";"BORDEAUX";"33063";"FR";"GeoCoordinates";"44.8413983";"-0.5583848";"Vrac";"Épicerie";"Accepte contenant";"epicerieDomergue";" ";"https://www.communecter.org/upload/communecter/organizations/594e0fc440bb4eba4a87ad4b/logo-vrac-P.png";" ";"Quartier ZZ";" ";" ";" ";" ";" ";" ";" ";" ";" ";" ";" ";" "
"Organization";"Biocoop Gambetta";"LocalBusiness";"https://www.communecter.org/#@biocoopGambetta";"https://www.communecter.org/api/organization/get/id/594e0fc440bb4eba4a87ad4f";"http://www.biocoop.fr/";"PostalAddress";"27 Rue Judaïque";"33000";"BORDEAUX";"33063";"FR";"GeoCoordinates";"44.8417408";"-0.5825174";"Épicerie";"Produits biologiques";"Accepte contenant";"biocoopGambetta";" ";"https://www.communecter.org/upload/communecter/organizations/594e0fc440bb4eba4a87ad4f/logo-superm-P.png";"Magasin biologique";"Vrac";" ";" ";" ";" ";" ";" ";" ";" ";" ";" ";" ";" "
"Organization";"Family Shop";"LocalBusiness";"https://www.communecter.org/#@familyShop";"https://www.communecter.org/api/organization/get/id/594e0fc440bb4eba4a87ad57";"https://www.facebook.com/familyshopbordeaux/";"PostalAddress";"3 rue des boucheries";"33000";"BORDEAUX";"33063";"FR";"GeoCoordinates";"44.835611";"-0.5692912";" ";" ";" ";"familyShop";" ";" ";"FERMÉ";" ";" ";" ";" ";" ";" ";" ";" ";" ";" ";" ";" ";" "
"Organization";"La Recharge";"LocalBusiness";"https://www.communecter.org/#@laRecharge";"https://www.communecter.org/api/organization/get/id/594e0fc440bb4eba4a87ad5b";"http://www.la-recharge.fr";"PostalAddress";"38 rue Sainte-Colombe";"33000";"BORDEAUX";"33063";"FR";"GeoCoordinates";"44.837233";"-0.5712535";"Vrac";"Épicerie";"100% Vrac";"laRecharge";" ";"https://www.communecter.org/upload/communecter/organizations/594e0fc440bb4eba4a87ad5b/logo-epicerie-vrac-P.png";" ";"Accepte contenant";" ";" ";" ";" ";" ";" ";" ";" ";" ";" ";" ";" "
"Organization";"Biocoop Pasteur";"LocalBusiness";"https://www.communecter.org/#@biocoopPasteur";"https://www.communecter.org/api/organization/get/id/594e0fc440bb4eba4a87ad5f";"http://www.bdxpasteur.com/";"PostalAddress";"40 cours Pasteur";"33000";"BORDEAUX";"33063";"FR";"GeoCoordinates";"44.8329634";"-0.5738668";"Vrac";"Épicerie";"Produits biologiques";"biocoopPasteur";" ";"https://www.communecter.org/upload/communecter/organizations/594e0fc440bb4eba4a87ad5f/logo-superm-P.png";"Magasin bio";"Accepte contenant";" ";" ";" ";" ";" ";" ";" ";" ";" ";" ";" ";" "
"Organization";"Biocoop Caudéran";"LocalBusiness";"https://www.communecter.org/#@biocoopCauderan";"https://www.communecter.org/api/organization/get/id/594e0fc440bb4eba4a87ad63";"http://www.biocoop.fr/";"PostalAddress";"48 Avenue du Général Leclerc";"33200";"BORDEAUX";"33063";"FR";"GeoCoordinates";"44.8526067";"-0.6085665";"Vrac";"Épicerie";"Produits biologiques";"biocoopCauderan";" ";"https://www.communecter.org/upload/communecter/organizations/594e0fc440bb4eba4a87ad63/logo-superm-P.png";"Magasin bio";"Accepte contenant";" ";" ";" ";" ";" ";" ";" ";" ";" ";" ";" ";" "
"Organization";"Le Palais des Thés";"LocalBusiness";"https://www.communecter.org/#@lePalaisDesThes7";"https://www.communecter.org/api/organization/get/id/594e0fc540bb4eba4a87ad67";"https://www.palaisdesthes.com/fr/";"PostalAddress";"55 cours de l’Intendance";"33000";"BORDEAUX";"33063";"FR";"GeoCoordinates";"44.841897";"-0.5785241";"Thé & Café";"Accepte contenant";"Vrac";"lePalaisDesThes7";" ";"https://www.communecter.org/upload/communecter/organizations/594e0fc540bb4eba4a87ad67/logo-vrac-P.png";" ";" ";" ";" ";" ";" ";" ";" ";" ";" ";" ";" ";" ";" "
"Organization";"Biocoop Chartrons";"LocalBusiness";"https://www.communecter.org/#@biocoopChartrons";"https://www.communecter.org/api/organization/get/id/594e0fc540bb4eba4a87ad6b";"http://www.biocoop.fr/";"PostalAddress";"6 rue Sicard";"33000";"BORDEAUX";"33063";"FR";"GeoCoordinates";"44.8520655";"-0.5726781";"Vrac";"Épicerie";"Produits biologiques";"biocoopChartrons";" ";"https://www.communecter.org/upload/communecter/organizations/594e0fc540bb4eba4a87ad6b/logo-superm-P.png";"Magasin bio";"Accepte contenant";" ";" ";" ";" ";" ";" ";" ";" ";" ";" ";" ";" "
"Organization";"Bio C Bon Albret";"LocalBusiness";"https://www.communecter.org/#@bioCBonAlbret";"https://www.communecter.org/api/organization/get/id/594e0fc540bb4eba4a87ad6f";"http://www.bio-c-bon.eu/fr";"PostalAddress";"59 cours d’Albret";"33000";"BORDEAUX";"33063";"FR";"GeoCoordinates";"44.8325358";"-0.5796135";"Vrac";"Épicerie";"Produits biologiques";"bioCBonAlbret";" ";"https://www.communecter.org/upload/communecter/organizations/594e0fc540bb4eba4a87ad6f/logo-superm-P.png";"Magasin bio";"Accepte contenant";" ";" ";" ";" ";" ";" ";" ";" ";" ";" ";" ";" "
"Organization";"Day by Day Bordeaux";"LocalBusiness";"https://www.communecter.org/#@dayByDayBordeaux";"https://www.communecter.org/api/organization/get/id/594e0fc540bb4eba4a87ad73";"http://daybyday-shop.com/magasin/bordeaux";"PostalAddress";"61 rue Fondaudège";"33000";"BORDEAUX";"33063";"FR";"GeoCoordinates";"44.8469922";"-0.5804364";"Vrac";"Épicerie";"Produits biologiques";"dayByDayBordeaux";"Chez Day by Day Bordeaux, il est possible d'apporter des contenants et des contenants vous sont proposés.";"https://www.communecter.org/upload/communecter/organizations/594e0fc540bb4eba4a87ad73/logo-epicerie-vrac-P.png";" ";"100% Vrac";"Accepte Contenant";" ";" ";" ";" ";" ";" ";" ";" ";" ";" ";" "
"Organization";"Magasin Général";"LocalBusiness";"https://www.communecter.org/#@magasinGeneral";"https://www.communecter.org/api/organization/get/id/594e0fc540bb4eba4a87ad77";"http://magasingeneral.camp/";"PostalAddress";"87 Quai des Queyries, Bâtiment Nord";"33100";"BORDEAUX";"33063";"FR";"GeoCoordinates";"44.8495939";"-0.560638";"Vrac";"Épicerie";"Produits biologiques";"magasinGeneral";" ";"https://www.communecter.org/upload/communecter/organizations/594e0fc540bb4eba4a87ad77/logo-epicerie-vrac-P.png";" ";"Accepte contenant";" ";" ";" ";" ";" ";" ";" ";" ";" ";" ";" ";" "
"Organization";"Bio C Bon Victor Hugo";"LocalBusiness";"https://www.communecter.org/#@bioCBonVictorHugo";"https://www.communecter.org/api/organization/get/id/594e0fc540bb4eba4a87ad7b";"http://www.bio-c-bon.eu/fr";"PostalAddress";"95 Cours Victor Hugo";"33000";"BORDEAUX";"33063";"FR";"GeoCoordinates";"44.8352073";"-0.5707299";"Vrac";"Épicerie";"Produits biologiques";"bioCBonVictorHugo";" ";"https://www.communecter.org/upload/communecter/organizations/594e0fc540bb4eba4a87ad7b/logo-superm-P.png";"Magasin bio";"Accepte contenant";" ";" ";" ";" ";" ";" ";" ";" ";" ";" ";" ";" "
"Organization";"Naturalia";"LocalBusiness";"https://www.communecter.org/#@naturalia23";"https://www.communecter.org/api/organization/get/id/594e0fc540bb4eba4a87ad7f";"http://www.naturalia.fr/";"PostalAddress";"CC Saint Christoly 17 rue du Père Jabrun";"33000";"BORDEAUX";"33063";"FR";"GeoCoordinates";"44.838785";"-0.576564";"Vrac";"Épicerie";"Produits biologiques";"naturalia23";" ";"https://www.communecter.org/upload/communecter/organizations/594e0fc540bb4eba4a87ad7f/logo-superm-P.png";" ";"Accepte contenant";" ";" ";" ";" ";" ";" ";" ";" ";" ";" ";" ";" "
"Organization";"Karine Fromages Fins";"LocalBusiness";"https://www.communecter.org/#@karineFromagesFins";"https://www.communecter.org/api/organization/get/id/594e0fc540bb4eba4a87ad83";"http://www.karine-fromages-fins.com/";"PostalAddress";"Marché des Capucins";"33000";"BORDEAUX";"33063";"FR";"GeoCoordinates";"44.8304";"-0.5678666";"Fromagerie";"Accepte contenant";" ";"karineFromagesFins";" ";"https://www.communecter.org/upload/communecter/organizations/594e0fc540bb4eba4a87ad83/logo-vrac-P.png";" ";" ";" ";" ";" ";" ";" ";" ";" ";" ";" ";" ";" ";" "
"Organization";"CC Auchan Lac";"LocalBusiness";"https://www.communecter.org/#@ccAuchanLac";"https://www.communecter.org/api/organization/get/id/594e0fc540bb4eba4a87ad87";" ";"PostalAddress";"cc alienor,  Bordeaux lac";"33000";"BORDEAUX";"33063";"FR";"GeoCoordinates";"44.8780424";"-0.5618658";"Vrac";"Épicerie";" ";"ccAuchanLac";" ";"https://www.communecter.org/upload/communecter/organizations/594e0fc540bb4eba4a87ad87/logo-superm-P.png";" ";" ";" ";" ";" ";" ";" ";" ";" ";" ";" ";" ";" ";" "
"Organization";"Biocoop Montaigu";"LocalBusiness";"https://www.communecter.org/#@biocoopMontaigu";"https://www.communecter.org/api/organization/get/id/594e0fc540bb4eba4a87ad8b";"http://biocoop.fr/";"PostalAddress";"ZA Bellevue rue Alfred Nobel";"85600";"BOUFFERE";"85027";"FR";"GeoCoordinates";"46.968975";"-1.329125";"Vrac";"Épicerie";"Produits biologiques";"biocoopMontaigu";" ";" ";" ";" ";" ";" ";" ";" ";" ";" ";" ";" ";" ";" ";" ";" "
"Organization";"Bio c’ Bon";"LocalBusiness";"https://www.communecter.org/#@bioCBon21";"https://www.communecter.org/api/organization/get/id/594e0fc540bb4eba4a87ad8f";"http://www.bio-c-bon.eu/fr";"PostalAddress";"892 rue Yves Kermen";"92100";"BOULOGNE BILLANCOURT";"92012";"FR";"GeoCoordinates";"48.8290536";"2.2376896";"Vrac";"Épicerie";"Produits biologiques";"bioCBon21";" ";" ";" ";" ";" ";" ";" ";" ";" ";" ";" ";" ";" ";" ";" ";" "
"Organization";"Biocoop Le Petit Gallieni";"LocalBusiness";"https://www.communecter.org/#@biocoopLePetitGallieni";"https://www.communecter.org/api/organization/get/id/594e0fc540bb4eba4a87ad93";"http://biocoop.fr/";"PostalAddress";"163 Ter rue Gallieni";"92100";"BOULOGNE BILLANCOURT";"92012";"FR";"GeoCoordinates";"48.8367053";"2.2409809";"Vrac";"Épicerie";"Produits biologiques";"biocoopLePetitGallieni";" ";" ";" ";" ";" ";" ";" ";" ";" ";" ";" ";" ";" ";" ";" ";" "
"Organization";"La Vie Claire";"LocalBusiness";"https://www.communecter.org/#@laVieClaire28";"https://www.communecter.org/api/organization/get/id/594e0fc540bb4eba4a87ad97";"http://www.lavieclaire.com";"PostalAddress";"24 avenue Pierre Lefaucheux";"92100";"BOULOGNE BILLANCOURT";"92012";"FR";"GeoCoordinates";"48.8250631";"2.2406999595999";"Vrac";"Épicerie";"Produits biologiques";"laVieClaire28";" ";" ";" ";" ";" ";" ";" ";" ";" ";" ";" ";" ";" ";" ";" ";" "
"Organization";"Les Nouveaux Robinson";"LocalBusiness";"https://www.communecter.org/#@lesNouveauxRobinson";"https://www.communecter.org/api/organization/get/id/594e0fc540bb4eba4a87ad9b";"http://www.lesnouveauxrobinson.coop/";"PostalAddress";"127 avenue Jean-Baptiste Clément";"92100";"BOULOGNE BILLANCOURT";"92012";"FR";"GeoCoordinates";"48.8432144";"2.2320417";"Vrac";"Épicerie";"Produits biologiques";"lesNouveauxRobinson";" ";" ";" ";" ";" ";" ";" ";" ";" ";" ";" ";" ";" ";" ";" ";" "
"Organization";"Naturalia";"LocalBusiness";"https://www.communecter.org/#@naturalia4";"https://www.communecter.org/api/organization/get/id/594e0fc540bb4eba4a87ad9f";"http://www.naturalia.fr/";"PostalAddress";"126 avenue Victor Hugo";"92100";"BOULOGNE BILLANCOURT";"92012";"FR";"GeoCoordinates";"48.8397556";"2.2472101";"Vrac";"Épicerie";"Produits biologiques";"naturalia4";" ";" ";" ";" ";" ";" ";" ";" ";" ";" ";" ";" ";" ";" ";" ";" "
"Organization";"Queues de Cerises";"LocalBusiness";"https://www.communecter.org/#@queuesDeCerises";"https://www.communecter.org/api/organization/get/id/594e0fc540bb4eba4a87ada3";"https://www.queues-cerises.fr/";"PostalAddress";"21 avenue Jean Baptiste Clément";"92100";"BOULOGNE BILLANCOURT";"92012";"FR";"GeoCoordinates";"48.8478084";"2.2413176";"Vrac";"Épicerie";"Produits biologiques";"queuesDeCerises";" ";"https://www.communecter.org/upload/communecter/organizations/594e0fc540bb4eba4a87ada3/logo2.png";"Supermarché de produits biologiques";" ";" ";" ";" ";" ";" ";" ";" ";" ";" ";" ";" ";" "
"Organization";"Le Palais des Thés";"LocalBusiness";"https://www.communecter.org/#@lePalaisDesThes3";"https://www.communecter.org/api/organization/get/id/594e0fc540bb4eba4a87ada7";"www.palaisdesthes.com/";"PostalAddress";"69 boulevard Jean Jaurès";"92100";"BOULOGNE BILLANCOURT";"92012";"FR";"GeoCoordinates";"48.8392579";"2.2404419";"Vrac";"Épicerie";"Thé Café";"lePalaisDesThes3";" ";" ";" ";" ";" ";" ";" ";" ";" ";" ";" ";" ";" ";" ";" ";" "
"Organization";"Les Nouveaux Robinsons Clément";"LocalBusiness";"https://www.communecter.org/#@lesNouveauxRobinsonsClement";"https://www.communecter.org/api/organization/get/id/594e0fc540bb4eba4a87adab";"http://www.lesnouveauxrobinson.coop/";"PostalAddress";"127 avenue Jean-Baptiste Clément";"92100";"BOULOGNE BILLANCOURT";"92012";"FR";"GeoCoordinates";"48.8432144";"2.2320417";"Vrac";"Épicerie";"Produits biologiques";"lesNouveauxRobinsonsClement";"Chez Les Nouveaux Robinsons Clément vous trouverez des fruits et des légumes.";" ";" ";" ";" ";" ";" ";" ";" ";" ";" ";" ";" ";" ";" ";" "
"Organization";"Carrefour Bio Boulogne Billancourt Jean Jaurès";"LocalBusiness";"https://www.communecter.org/#@carrefourBioBoulogneBillancourtJeanJaures";"https://www.communecter.org/api/organization/get/id/594e0fc540bb4eba4a87adaf";"http://www.carrefour.fr/magasin/bio-boulogne-billancourt-jean-jaures";"PostalAddress";"264 Boulevard Jean Jaurès";"92100";"BOULOGNE BILLANCOURT";"92012";"FR";"GeoCoordinates";"48.8278331";"2.2468045";"Vrac";"Épicerie";"Produits biologiques";"carrefourBioBoulogneBillancourtJeanJaures";"Chez Carrefour Bio Boulogne Billancourt Jean Jaurès il n'est pas possible d'apporter ses cillancourttenants et aucun cillancourttenant n'est proposé";" ";" ";" ";" ";" ";" ";" ";" ";" ";" ";" ";" ";" ";" ";" "
"Organization";"Bio c' Bon Boulogne Kermen";"LocalBusiness";"https://www.communecter.org/#@bioCBonBoulogneKermen";"https://www.communecter.org/api/organization/get/id/594e0fc540bb4eba4a87adb3";"http://www.bio-c-bon.eu/fr";"PostalAddress";"892 Rue Yves Kermen";"92100";"BOULOGNE BILLANCOURT";"92012";"FR";"GeoCoordinates";"48.8290536";"2.2376896";"Vrac";"Épicerie";"Produits biologiques";"bioCBonBoulogneKermen";"Chez Bio c' Bon Boulogne Kermen il n'est pas possible d'apporter ses contenants et aucun contenant n'est proposé.";" ";" ";" ";" ";" ";" ";" ";" ";" ";" ";" ";" ";" ";" ";" "
"Organization";"Carrefour Bio Boulogne Billancourt Peupliers";"LocalBusiness";"https://www.communecter.org/#@carrefourBioBoulogneBillancourtPeupliers";"https://www.communecter.org/api/organization/get/id/594e0fc540bb4eba4a87adb7";"http://www.carrefour.fr/magasin/bio-boulogne-billancourt-peupliers";"PostalAddress";"46 rue des Peupliers";"92100";"BOULOGNE BILLANCOURT";"92012";"FR";"GeoCoordinates";"48.8339641";"2.2525029";"Vrac";"Épicerie";"Produits biologiques";"carrefourBioBoulogneBillancourtPeupliers";" ";" ";" ";" ";" ";" ";" ";" ";" ";" ";" ";" ";" ";" ";" ";" "
"Organization";"Biocoop Opale Bio";"LocalBusiness";"https://www.communecter.org/#@biocoopOpaleBio";"https://www.communecter.org/api/organization/get/id/594e0fc540bb4eba4a87adbb";"http://biocoop.fr/";"PostalAddress";"17 rue Edmond Rostand";"62200";"BOULOGNE SUR MER";"62160";"FR";"GeoCoordinates";"50.7253797";"1.603206";"Vrac";"Épicerie";"Produits biologiques";"biocoopOpaleBio";" ";" ";" ";" ";" ";" ";" ";" ";" ";" ";" ";" ";" ";" ";" ";" "
"Organization";"Biomonde L’Archamb’bio";"LocalBusiness";"https://www.communecter.org/#@biomondeLarchambbio";"https://www.communecter.org/api/organization/get/id/594e0fc540bb4eba4a87adbf";"https://www.biomonde.fr/";"PostalAddress";"rue du Lieutenant Colonel Dubost";"03160";"BOURBON L ARCHAMBAULT";"03036";"FR";"GeoCoordinates";"46.5869504";"3.0597378";"Vrac";"Épicerie";"Produits biologiques";"biomondeLarchambbio";" ";" ";" ";" ";" ";" ";" ";" ";" ";" ";" ";" ";" ";" ";" ";" "
"Organization";"Biocoop Bourguibio";"LocalBusiness";"https://www.communecter.org/#@biocoopBourguibio";"https://www.communecter.org/api/organization/get/id/594e0fc540bb4eba4a87adc3";"http://biocoop.fr/";"PostalAddress";"8 rue du Dr Guyotat";"42220";"BOURG ARGENTAL";"42023";"FR";"GeoCoordinates";"45.2963841";"4.5624015";"Vrac";"Épicerie";"Produits biologiques";"biocoopBourguibio";" ";" ";" ";" ";" ";" ";" ";" ";" ";" ";" ";" ";" ";" ";" ";" "
"Organization";"Biomonde Ecrin Bio";"LocalBusiness";"https://www.communecter.org/#@biomondeEcrinBio";"https://www.communecter.org/api/organization/get/id/594e0fc540bb4eba4a87adc7";"https://www.biomonde.fr/";"PostalAddress";"29 rue Viennois";"38520";"LE BOURG D OISANS";"38052";"FR";"GeoCoordinates";"45.05402";"6.0293469";"Vrac";"Épicerie";"Produits biologiques";"biomondeEcrinBio";" ";" ";" ";" ";" ";" ";" ";" ";" ";" ";" ";" ";" ";" ";" ";" "
"Organization";"Biocoop Mag’Bio Eden";"LocalBusiness";"https://www.communecter.org/#@biocoopMagbioEden";"https://www.communecter.org/api/organization/get/id/594e0fc540bb4eba4a87adcb";"http://biocoop.fr/";"PostalAddress";"43 avenue Alsace Lorraine";"01000";"BOURG EN BRESSE";"01053";"FR";"GeoCoordinates";"46.2030135";"5.2225284";"Vrac";"Épicerie";"Produits biologiques";"biocoopMagbioEden";" ";" ";" ";" ";" ";" ";" ";" ";" ";" ";" ";" ";" ";" ";" ";" "
