{
  "version": 0.6,
  "generator": "Overpass API 0.7.56.7 b85c4387",
  "osm3s": {
    "timestamp_osm_base": "2021-01-22T21:03:02Z",
    "timestamp_areas_base": "2021-01-22T20:02:02Z",
    "copyright": "The data included in this document is from www.openstreetmap.org. The data is made available under ODbL."
  },
  "elements": [

{
  "type": "node",
  "id": 530750574,
  "lat": 47.6536182,
  "lon": 8.8540821,
  "tags": {
    "addr:city": "Stein am Rhein",
    "addr:housenumber": "30",
    "addr:postcode": "8260",
    "addr:street": "Kaltenbacherstrasse",
    "name": "Anliker",
    "second_hand": "only",
    "shop": "car"
  }
},
{
  "type": "node",
  "id": 561606321,
  "lat": 51.1264129,
  "lon": 4.5056526,
  "tags": {
    "name": "JB Metro Cars",
    "second_hand": "only",
    "shop": "car",
    "website": "http://www.jbcars.be"
  }
},
{
  "type": "node",
  "id": 568000408,
  "lat": 47.4998756,
  "lon": 8.7302188,
  "tags": {
    "addr:city": "Winterthur",
    "addr:country": "CH",
    "addr:housenumber": "14",
    "addr:postcode": "8400",
    "addr:street": "Marktgasse",
    "name": "revendo",
    "opening_hours": "Sa 09:00-17:00",
    "repair": "yes",
    "second_hand": "only",
    "shop": "electronics",
    "website": "https://revendo.ch/"
  }
},
{
  "type": "node",
  "id": 699608582,
  "lat": 46.9444705,
  "lon": 7.4236567,
  "tags": {
    "name": "BrockiShop",
    "operator": "Blaues Kreuz",
    "second_hand": "only",
    "shop": "second_hand"
  }
},
{
  "type": "node",
  "id": 709022317,
  "lat": 47.4984065,
  "lon": 8.7297800,
  "tags": {
    "addr:city": "Winterthur",
    "addr:country": "CH",
    "addr:housenumber": "8",
    "addr:postcode": "8400",
    "addr:street": "Steinberggasse",
    "name": "Ootgutür",
    "second_hand": "only",
    "shop": "clothes"
  }
},
{
  "type": "node",
  "id": 718873083,
  "lat": 43.5663217,
  "lon": 1.4678431,
  "tags": {
    "alt_name": "Le Zinc",
    "contact:facebook": "https://www.facebook.com/Atelier-v%C3%A9lo-du-ZINC-400572430153171/",
    "description": "Atelier Vélo participatif et solidaire + vente vélo occasion & fournitures + réparation",
    "email": "zinc@rezo.net",
    "name": "Atelier Vélo du ZINC",
    "opening_hours": "Tu-Sa 15:00-20:00; We,Fr off",
    "opening_hours:covid19": "off",
    "second_hand": "only",
    "service:bicycle:diy": "yes",
    "service:bicycle:pump": "yes",
    "service:bicycle:retail": "no",
    "service:bicycle:second_hand": "yes",
    "shop": "bicycle",
    "url": "https://zincasso.wordpress.com"
  }
},
{
  "type": "node",
  "id": 773004246,
  "lat": 46.3276615,
  "lon": -0.4377061,
  "tags": {
    "name": "Emmaüs",
    "opening_hours": "We 14:00-17:30; Fr 14:00-17:30; Sa 10:00-12:00,14:00-17:30",
    "operator": "Emmaüs",
    "second_hand": "only",
    "shop": "clothes",
    "source": "cadastre-dgi-fr source : Direction Générale des Impôts - Cadastre. Mise à jour : 2010",
    "wheelchair": "yes"
  }
},
{
  "type": "node",
  "id": 884419253,
  "lat": 43.5695972,
  "lon": 1.4983544,
  "tags": {
    "addr:city": "Labège",
    "addr:housenumber": "2175",
    "addr:postcode": "31670",
    "addr:street": "Route de Baziege la Lauragaise",
    "brand": "Multimarque",
    "name": "VPN Autos Toulouse",
    "opening_hours": "Mo-Fr 09:00-18:00; Sa 09:00-19:00",
    "opening_hours:covid19": "same",
    "operator": "VPN Autos",
    "phone": "+33 5 64 28 67 76",
    "second_hand": "only",
    "service:vehicle:Car_sales": "yes",
    "service:vehicle:air_conditioning": "yes",
    "service:vehicle:alignment": "yes",
    "service:vehicle:batteries": "yes",
    "service:vehicle:body_repair": "yes",
    "service:vehicle:brakes": "yes",
    "service:vehicle:car_parts": "yes",
    "service:vehicle:car_repair": "yes",
    "service:vehicle:diagnostics": "yes",
    "service:vehicle:electrical": "yes",
    "service:vehicle:glass": "yes",
    "service:vehicle:inspection": "yes",
    "service:vehicle:oil_change": "yes",
    "service:vehicle:repairs": "yes",
    "service:vehicle:tires": "yes",
    "service:vehicle:tyres": "yes",
    "service:vehicle:used_car_sales": "yes",
    "service:vehicle:wheels": "yes",
    "shop": "car",
    "website": "https://toulouse.vpn-autos.com",
    "wheelchair": "yes"
  }
},
{
  "type": "node",
  "id": 937753242,
  "lat": 43.6322462,
  "lon": 1.4343455,
  "tags": {
    "addr:city": "Toulouse",
    "addr:housenumber": "80",
    "addr:postcode": "31200",
    "addr:street": "route de Fronton",
    "description": "Vente et réparation de bicyclettes",
    "name": "Le Vélo d'Occasion",
    "phone": "+33 5 61 57 98 36",
    "second_hand": "only",
    "service:bicycle:repair": "yes",
    "shop": "bicycle",
    "website": "https://www.facebook.com/levelodoccasion/"
  }
},
{
  "type": "node",
  "id": 974239124,
  "lat": 48.4491580,
  "lon": 2.1715580,
  "tags": {
    "addr:city": "Étampes",
    "addr:housenumber": "102",
    "addr:street": "Boulevard Saint-Michel",
    "clothes": "babies",
    "name": "Baby's Troc",
    "second_hand": "only",
    "shop": "clothes"
  }
},
{
  "type": "node",
  "id": 1014143268,
  "lat": 47.7415137,
  "lon": 8.7104409,
  "tags": {
    "name:cs": "Used cars",
    "second_hand": "only",
    "shop": "car"
  }
},
{
  "type": "node",
  "id": 1084069852,
  "lat": 47.0518782,
  "lon": 8.3035782,
  "tags": {
    "name": "Revendo",
    "opening_hours": "Mo-Fr 10:00-18:30; Sa 09:00-17:00",
    "repair": "yes",
    "second_hand": "only",
    "shop": "mobile_phone",
    "website": "https://revendo.ch"
  }
},
{
  "type": "node",
  "id": 1255608009,
  "lat": 43.3233165,
  "lon": 1.9469521,
  "tags": {
    "name": "Emmaüs",
    "opening_hours": "Tu, Th 09:00-12:00",
    "operator": "Emmaüs",
    "second_hand": "only",
    "shop": "charity",
    "wheelchair": "yes"
  }
},
{
  "type": "node",
  "id": 1398758957,
  "lat": 47.1918986,
  "lon": -1.5461138,
  "tags": {
    "charity": "yes",
    "contact:city": "Rezé",
    "contact:email": "alejandradujan@hotmail.fr",
    "contact:facebook": "https://www.facebook.com/associationlafripouille/#",
    "contact:housenumber": "49",
    "contact:phone": "+33 2 53 97 36 76",
    "contact:postcode": "44000",
    "contact:street": "Rue Alsace-Lorraine",
    "description": "Ventes de vêtements d’occasions homme et femme, recyclage de vêtements en atelier couture, cours de couture; machine a coudre en libre service.",
    "mapillary": "BFSN-4BwyE8_0D4waqWCOQ",
    "name": "Miss récup & recycle",
    "note": "Voir https://wiki.openstreetmap.org/wiki/WikiProject_CircularEconomy pour conseils de cartographie.",
    "opening_hours": "Tu,We,Fr 10:30-19:00; Sa 10:30-18:00",
    "operator": "Association Miss récup & recycle",
    "recycling:clothes": "yes",
    "second_hand": "only",
    "service": "sewing classes",
    "shop": "clothes",
    "source": "MieuxTrierANantes 2019",
    "vending": "textile;chaussure;ceinture;sac"
  }
},
{
  "type": "node",
  "id": 1480463395,
  "lat": 51.2053544,
  "lon": 5.1148042,
  "tags": {
    "name": "Peter Puttenaers",
    "second_hand": "only",
    "shop": "car"
  }
},
{
  "type": "node",
  "id": 1491223501,
  "lat": 50.6284160,
  "lon": 3.0522950,
  "tags": {
    "contact:website": "https://bon-chic-bonne-fripe.business.site/",
    "name": "Bon Chic Bonne Fripe",
    "opening_hours": "Mo-Su 14:00-19:00; Su 10:00-13:00",
    "opening_hours:covid19": "Mo-Sa 12:00-17:30; Su 10:00-14:00",
    "second_hand": "only",
    "shop": "clothes",
    "source": "survey",
    "survey:date": "2018-02"
  }
},
{
  "type": "node",
  "id": 1532506435,
  "lat": 43.5995252,
  "lon": 1.4293897,
  "tags": {
    "addr:city": "Toulouse",
    "addr:housenumber": "89",
    "addr:postcode": "31300",
    "addr:street": "Allées Charles de Fitte",
    "name": "Emmaüs AGIR Frip' Art",
    "opening_hours": "Tu-Sa 10:00-18:30",
    "operator": "Emmaüs AGIR",
    "phone": "+33 9 73 61 50 57",
    "second_hand": "only",
    "shop": "charity",
    "source": "GrandToulouse",
    "source:date": "2011-11-06",
    "website": "https://www.emmaus-agir-31.fr/nos-adresses/%e2%80%8bfripart/"
  }
},
{
  "type": "node",
  "id": 1607079907,
  "lat": 43.6171885,
  "lon": 3.8822532,
  "tags": {
    "addr:housenumber": "5",
    "addr:postcode": "34000",
    "addr:street": "Rue de la Poésie",
    "amenity": "bicycle_repair_station",
    "bicycle:repair": "yes",
    "description": "Atelier associatif d'entretien de votre vélo",
    "name": "Le Vieux Biclou",
    "office": "association",
    "phone": "+33 9 54 55 27 44",
    "repair": "yes",
    "second_hand": "only",
    "service:bicycle:diy": "yes",
    "service:bicycle:repair": "yes",
    "shop": "bicycle",
    "website": "http://www.vieuxbiclou.org/",
    "wheelchair": "yes"
  }
},
{
  "type": "node",
  "id": 1652874151,
  "lat": 47.2102685,
  "lon": -1.5508755,
  "tags": {
    "amenity": "recycling",
    "charity": "yes",
    "charity:description": "La vente des objets usagés permet le financement des actions du Secours Populaire Français.",
    "contact:email": "nantes@spf.org",
    "contact:facebook": "https://www.facebook.com/spf.nantes/",
    "contact:housenumber": "31",
    "contact:phone": "+33 2 40 29 45 26;+33 2 40 74 14 14",
    "contact:postcode": "44000",
    "contact:website": "https://www.secourspopulaire.fr/spop-affaires",
    "description": "De nombreux vêtements sont proposés dans cette boutique constituée de plusieurs petites pièces. Il y a aussi quelques livres pour enfants et quelques jouets.",
    "mapillary": "FyLThRrCZZFnE23o7RukMQ",
    "name": "Boutique Madeleine - fripes et bidules",
    "note": "Voir https://wiki.openstreetmap.org/wiki/WikiProject_CircularEconomy pour conseils de cartographie.",
    "opening_hours": "Mo 14:00-17:00;Tu,Th,Fr 10:00-13:00,14:30-17:00",
    "operator": "Association Secours Populaire Français Nantes",
    "recycling:clothes": "yes",
    "recycling:shoes": "yes",
    "recycling_type": "centre",
    "second_hand": "only",
    "shop": "clothes",
    "source": "Entretien SecoursPopulaire /MieuxTrierANantes 08/2016; Mieux trier à Nantes 09/2018 - 07/2019",
    "vending": "vêtement;livre;jouet;pull;pantalon;veste"
  }
},
{
  "type": "node",
  "id": 1662359770,
  "lat": 45.7518448,
  "lon": 4.8492251,
  "tags": {
    "name": "Emmaüs Crequi",
    "opening_hours": "Tu-Sa 10:00-12:00; Tu-Sa 14:00-18:30",
    "operator": "Emmaüs France",
    "operator:wikidata": "Q3053001",
    "operator:wikipedia": "fr:Emmaüs France",
    "phone": "+33 4 78 78 10 90",
    "second_hand": "only",
    "shop": "charity",
    "website": "http://www.emmaus-lyon.org/acheter/"
  }
},
{
  "type": "node",
  "id": 1683368936,
  "lat": 47.1917667,
  "lon": -1.5461917,
  "tags": {
    "addr:city": "Rezé",
    "addr:housenumber": "55",
    "addr:postcode": "44400",
    "addr:street": "Rue Alsace-Lorraine",
    "contact:email": "contact@latelierdesreparations.fr",
    "contact:facebook": "https://www.facebook.com/atelierdesreparations/",
    "contact:phone": "+33 2 72 65 91 67",
    "description": "Boutique spécialisée dans la réparation de matériel informatique, smartphones, consoles et tous appareils électroniques.",
    "name": "L'atelier des réparations",
    "note": "Voir https://wiki.openstreetmap.org/wiki/WikiProject_CircularEconomy pour conseils de cartographie. ",
    "opening_hours": "Tu-Sa 10:00-13:00,14:00-18:00",
    "phone": "+33 2 40 75 64 70",
    "second_hand": "only",
    "shop": "computer,mobile_phone",
    "source": "Association MieuxTrierANantes"
  }
},
{
  "type": "node",
  "id": 1692370844,
  "lat": 48.3973458,
  "lon": -4.4815107,
  "tags": {
    "contact:city": "Brest",
    "contact:housenumber": "19",
    "contact:phone": "+33 9 81 62 70 20",
    "contact:postcode": "29200",
    "contact:street": "Rue Bruat",
    "contact:website": "http://bapav.infini.fr",
    "name": "Brest À Pied et À Vélo (BAPAV)",
    "opening_hours": "Th 15:00-18:00; Fr 16:00-20:00",
    "second_hand": "only",
    "service:bicycle:diy": "yes",
    "shop": "bicycle"
  }
},
{
  "type": "node",
  "id": 1713911592,
  "lat": 47.2053751,
  "lon": 7.5411023,
  "tags": {
    "name": "Teresa-Lädeli",
    "opening_hours": "Tu-Fr 14:00-17:30;PH closed",
    "second_hand": "only",
    "shop": "charity",
    "wheelchair": "no"
  }
},
{
  "type": "node",
  "id": 1730640904,
  "lat": 47.2432133,
  "lon": -1.5545268,
  "tags": {
    "amenity": "recycling",
    "charity": "yes",
    "contact:city": "Nantes",
    "contact:housenumber": "3",
    "contact:postcode": "44300",
    "contact:street": "Chemin de la Censive du Tertre",
    "description": "Vélocampus est une association qui anime des ateliers participatifs et solidaires qui visent à fournir aux participants une certaine autonomie à l'entretien et la réparation de leur vélo.",
    "image": "http://www.velocampus.net/local/cache-vignettes/L680xH173/PB200053-dd347.jpg",
    "name": "Vélocampus",
    "note": "Voir https://wiki.openstreetmap.org/wiki/WikiProject_CircularEconomy pour conseils de cartographie.",
    "office": "ngo",
    "operator": "Association Vélocampus",
    "recycling:bicycles": "yes",
    "second_hand": "only",
    "service:bicycle:repair": "yes",
    "website": "http://www.velocampus.net/"
  }
},
{
  "type": "node",
  "id": 1773529810,
  "lat": 48.8198244,
  "lon": 2.3426809,
  "tags": {
    "addr:city": "Paris",
    "addr:housenumber": "14",
    "addr:street": "Boulevard Jourdan",
    "level": "0",
    "name": "Boulinier Jourdan",
    "opening_hours": "Mo-Sa 10:30-20:00; Su 14:00-20:00",
    "second_hand": "only",
    "shop": "books",
    "source": "cadastre-dgi-fr source : Direction Générale des Impôts - Cadastre. Mise à jour : 2012, boulinier.com",
    "wheelchair": "yes"
  }
},
{
  "type": "node",
  "id": 1825768712,
  "lat": 43.9489960,
  "lon": 4.8070460,
  "tags": {
    "name": "Hookies",
    "second_hand": "only",
    "shop": "clothes",
    "source": "survey",
    "survey:date": "2019-04-18",
    "was:name": "ID comics;Glam",
    "was:shop": "books;clothes"
  }
},
{
  "type": "node",
  "id": 1865679810,
  "lat": 44.3638853,
  "lon": 2.5927485,
  "tags": {
    "amenity": "recycling",
    "disused:name": "Vival",
    "disused:shop": "convenience",
    "name": "La Petite Recyclerie",
    "operator": "Progress",
    "recycling:books": "yes",
    "recycling:computers": "yes",
    "second_hand": "only",
    "source": "Survey 2019"
  }
},
{
  "type": "node",
  "id": 1882031735,
  "lat": 51.2132409,
  "lon": 5.3126918,
  "tags": {
    "addr:city": "Lommel",
    "addr:housenumber": "242",
    "addr:postcode": "3920",
    "addr:street": "Stationsstraat",
    "name": "Peerlings",
    "operator": "Peerlings",
    "second_hand": "only",
    "shop": "car",
    "website": "http://www.peerlingslommel.be/"
  }
},
{
  "type": "node",
  "id": 1934793710,
  "lat": 43.3137814,
  "lon": 3.3446112,
  "tags": {
    "name": "Abition Auto 34",
    "second_hand": "only",
    "shop": "car"
  }
},
{
  "type": "node",
  "id": 1946369411,
  "lat": 45.6122851,
  "lon": 0.0781318,
  "tags": {
    "contact:facebook": "https://www.facebook.com/emmaus.angouleme.cognac",
    "currency:XLT": "BULE",
    "email": "responsables@emmaus-charente.org",
    "name": "Emmaüs",
    "opening_hours": "We 14:00-17:00; Sa 10:00-12:00,14:00-17:00",
    "opening_hours:covid19": "Tu-Fr 14:00-17:30; We,Sa 10:00-12:00,14:00-18:00",
    "payment:cash:XLT-BULE": "yes",
    "payment:contactless:XLT-BULE": "yes",
    "phone": "+335 45 67 19 56",
    "second_hand": "only",
    "shop": "charity",
    "website": "http://www.emmaus-angouleme.com/"
  }
},
{
  "type": "node",
  "id": 1981710665,
  "lat": 47.3747914,
  "lon": 8.5441440,
  "tags": {
    "name": "Calligramme",
    "second_hand": "only",
    "shop": "books",
    "wheelchair": "no"
  }
},
{
  "type": "node",
  "id": 2017961805,
  "lat": 44.3771952,
  "lon": 2.5386004,
  "tags": {
    "addr:street": "Route de Decazeville",
    "name": "Garage Vergnes Jacky",
    "operator": "Vergnes Jacky",
    "second_hand": "only",
    "shop": "car",
    "source": "survey"
  }
},
{
  "type": "node",
  "id": 2024662275,
  "lat": 43.2990190,
  "lon": 5.3753844,
  "tags": {
    "operator": "Emmaüs",
    "second_hand": "only",
    "shop": "charity"
  }
},
{
  "type": "node",
  "id": 2025173071,
  "lat": 48.6059997,
  "lon": 7.7524656,
  "tags": {
    "delivery:covid19": "no",
    "description:covid19": "Uniquement sur rendez-vous. QPV Schiltigheim/Bisscheim : service impression gratuit et PC gratuit",
    "email": "contact@desclicks.net",
    "internet_access": "yes",
    "name": "Desclicks - L'informatique Solidaire",
    "office": "association",
    "opening_hours": "Mo,We,Fr 14:00-18:00; Tu 17:00-20:00; Th 16:00-19:00; Sa 09:30-12:00",
    "opening_hours:covid19": "Mo,We,Fr 14:00-18:00; Tu 17:00-20:00; Th 16:00-19:00; Sa 09:30-12:00",
    "opening_hours:url": "http://www.desclicks.net/contact",
    "opensource": "selling",
    "phone": "+33 3 88836410",
    "repair": "welcome",
    "second_hand": "only",
    "service:computer": "yes",
    "service:print": "yes",
    "service:scan": "yes",
    "shop": "computer",
    "takeaway:covid19": "only",
    "website": "https://desclicks.net/",
    "wheelchair": "yes"
  }
},
{
  "type": "node",
  "id": 2028106650,
  "lat": 43.2947700,
  "lon": 5.3845978,
  "tags": {
    "name": "Tirechappe",
    "second_hand": "only",
    "shop": "clothes"
  }
},
{
  "type": "node",
  "id": 2028322609,
  "lat": 43.2934150,
  "lon": 5.3856298,
  "tags": {
    "contact:housenumber": "22",
    "contact:street": "Rue Saint-Michel",
    "name": "Dark Matter Conceptstore",
    "second_hand": "only",
    "shop": "clothes"
  }
},
{
  "type": "node",
  "id": 2059732944,
  "lat": 43.9451140,
  "lon": 4.8066490,
  "tags": {
    "name": "La friperie avignonnaise",
    "second_hand": "only",
    "shop": "clothes",
    "source": "survey",
    "survey:date": "2020-10-28",
    "was:name": "Cardel",
    "was:shop": "shoes"
  }
},
{
  "type": "node",
  "id": 2086044460,
  "lat": 49.0525194,
  "lon": -1.4422146,
  "tags": {
    "name": "La Maôve",
    "second_hand": "only",
    "shop": "books"
  }
},
{
  "type": "node",
  "id": 2122573097,
  "lat": 47.3760417,
  "lon": 9.5572092,
  "tags": {
    "addr:city": "Altstätten",
    "addr:country": "CH",
    "addr:housenumber": "23",
    "addr:postcode": "9450",
    "addr:street": "Kriessernstrasse",
    "name": "brocki.ch Altstätten",
    "opening_hours": "Mo off; Tu-Fr 09:00-18:30; Sa 09:00-17:00; Su off",
    "operator": "Heilsarmee",
    "phone": "+41717223590",
    "second_hand": "only",
    "shop": "second_hand",
    "website": "https://www.heilsarmee.ch/standorte/brocki-altstaetten"
  }
},
{
  "type": "node",
  "id": 2187051566,
  "lat": 43.6614055,
  "lon": 1.4303524,
  "tags": {
    "addr:housenumber": "31",
    "addr:street": "Avenue de Fronton",
    "clothes": "children",
    "contact:email": "contact@toobo-vetements.fr",
    "contact:phone": "+33562160032",
    "contact:website": "http://www.toobo-vetements.fr/",
    "name": "Toobo",
    "opening_hours": "Mo 15:00-19:00; Tu-Sa 10:00-13:00,14:30-19:00",
    "second_hand": "only",
    "shop": "clothes",
    "source": "survey"
  }
},
{
  "type": "node",
  "id": 2226684275,
  "lat": 46.4345486,
  "lon": 4.2746098,
  "tags": {
    "addr:city": "Charolles",
    "addr:housenumber": "6",
    "addr:postcode": "71120",
    "addr:street": "Rue Général Leclerc",
    "name": "Ressourcerie Réorient' Express",
    "opening_hours": "Tu-We 09:30-12:30, 14:30-17:30; Th off; Fr-Sa 09:30-12:30, 14:30-17:30; Su off",
    "second_hand": "only",
    "shop": "charity",
    "source": "Conseil général de la Saône-et-Loire - Agence de Développement Touristique - 03/2013"
  }
},
{
  "type": "node",
  "id": 2242868395,
  "lat": 47.2192373,
  "lon": -1.5551204,
  "tags": {
    "contact:city": "Nantes",
    "contact:country": "FR",
    "contact:facebook": "https://www.facebook.com/pischboutique/",
    "contact:housenumber": "17",
    "contact:phone": "+33 6 77 63 98 98",
    "contact:postcode": "44000",
    "contact:street": "Rue Léon Blum",
    "description": "Achat/vente de vinyles et livres d'occasion",
    "name": "Pisch",
    "opening_hours": "Tu-Sa 14:00-20:00",
    "second_hand": "only",
    "shop": "music",
    "source": "survey",
    "survey:date": "2019-02-24"
  }
},
{
  "type": "node",
  "id": 2260735420,
  "lat": 47.2163114,
  "lon": -1.5558953,
  "tags": {
    "books": "comic",
    "contact:city": "Nantes",
    "contact:country": "FR",
    "contact:facebook": "https://www.facebook.com/bdmnantes",
    "contact:housenumber": "7",
    "contact:phone": "+33 952 414 012",
    "contact:postcode": "44000",
    "contact:street": "Rue des Trois Croissants",
    "contact:website": "http://www.bande-dessinee-musique-nantes.fr",
    "description": "Achat, vente et échange de mangas, BD, comics, CD, vinyles, DVD, Blu-Ray.",
    "mapillary": "49-dnejkcZeFGLJS5r6F5A",
    "name": "Bande Dessinée Musique",
    "note": "Voir https://wiki.openstreetmap.org/wiki/WikiProject_CircularEconomy pour conseils de cartographie.",
    "opening_hours": "Tu-Sa 10:30-19:00; Jul-Aug: Mo-Sa 12:00-18:00",
    "recycling:books": "yes",
    "recycling:cds": "yes",
    "second_hand": "only",
    "shop": "books",
    "source": "Mieux trier à Nantes 07/2019",
    "survey:date": "2019-10-23",
    "vending": "manga;BD;comics;CD;vinyle;DVD;Blu-Ray",
    "wheelchair": "limited"
  }
},
{
  "type": "node",
  "id": 2302548130,
  "lat": 44.4019105,
  "lon": 2.6120286,
  "tags": {
    "name": "Troc Machin - Dépot Vente",
    "opening_hours": "Mo off; Tu-Sa 10:00-12:00,14:00-19:00; Su 14:00-19:00",
    "second_hand": "only",
    "shop": "second_hand",
    "source": "survey"
  }
},
{
  "type": "node",
  "id": 2322101556,
  "lat": 47.3850337,
  "lon": 8.5209208,
  "tags": {
    "addr:housenumber": "91",
    "addr:street": "Viaduktstrasse",
    "name": "Caritas Secondhand",
    "opening_hours": "Tu-Fr 10:00-19:00; Sa 10:00-18:00",
    "phone": "+41 43 321 33 75",
    "second_hand": "only",
    "shop": "clothes",
    "website": "http://www.caritas-secondhand.ch/"
  }
},
{
  "type": "node",
  "id": 2324470232,
  "lat": 50.4478841,
  "lon": 3.9255710,
  "tags": {
    "addr:housenumber": "13",
    "addr:street": "Rue du Grand Courant",
    "name": "AB Cars Auto Gaz",
    "operator": "Norguet",
    "second_hand": "only",
    "service": "repair",
    "shop": "car"
  }
},
{
  "type": "node",
  "id": 2360488101,
  "lat": 50.8363339,
  "lon": 4.3800610,
  "tags": {
    "addr:housenumber": "319",
    "addr:street": "Chaussée de Wavre - Steenweg op Waver",
    "currency:XLT": "ZINN",
    "email": "cecile@dejavu.shop",
    "payment:cash:XLT-ZINN": "yes",
    "phone": "+3224265346",
    "ref:UrbIS": "5097172",
    "second_hand": "only",
    "shop": "clothes",
    "website": "http://www.dejavu.shop"
  }
},
{
  "type": "node",
  "id": 2380355774,
  "lat": 46.9532869,
  "lon": 4.2959976,
  "tags": {
    "contact:phone": "+33 3 85 52 43 69",
    "name": "Emmaüs",
    "opening_hours": "Tu-Sa 10:00-12:00,14:00-18:00",
    "second_hand": "only",
    "shop": "charity",
    "website": "http://www.emmaus-etang.com/magasin-autun.html"
  }
},
{
  "type": "node",
  "id": 2393205130,
  "lat": 47.2163956,
  "lon": -1.5527195,
  "tags": {
    "brand": "O'CD",
    "check_date:opening_hours": "2020-11-20",
    "contact:city": "Nantes",
    "contact:country": "FR",
    "contact:housenumber": "37",
    "contact:phone": "+33 2 40 20 07 55",
    "contact:postcode": "44000",
    "contact:street": "Rue de Verdun",
    "contact:website": "http://ocd.fr",
    "name": "O'CD",
    "opening_hours": "Mo-Sa 10:30-19:30",
    "second_hand": "only",
    "shop": "music",
    "survey:date": "2019-02-24",
    "wheelchair": "limited"
  }
},
{
  "type": "node",
  "id": 2419910710,
  "lat": 51.1910212,
  "lon": 5.1022888,
  "tags": {
    "name": "fietsenatelier",
    "second_hand": "only",
    "shop": "recycling"
  }
},
{
  "type": "node",
  "id": 2419910726,
  "lat": 51.1909734,
  "lon": 5.1022492,
  "tags": {
    "entrance": "main",
    "second_hand": "only",
    "shop": "recycling"
  }
},
{
  "type": "node",
  "id": 2436835683,
  "lat": 45.4479355,
  "lon": 4.3825406,
  "tags": {
    "addr:housenumber": "17",
    "addr:street": "Rue Clovis Hugues",
    "name": "Librairie Dalby",
    "old_name": "Le Bruit des Vagues",
    "second_hand": "only",
    "shop": "books"
  }
},
{
  "type": "node",
  "id": 2439734791,
  "lat": 46.9490882,
  "lon": 7.4549363,
  "tags": {
    "alt_name": "Kolibri Kinderkleiderbörse",
    "clothes": "children",
    "contact:addr": "Postgasse 28, 3011 Bern",
    "contact:phone": "+41 76 4975439",
    "description": "second hand clothes for kids",
    "name": "Kolibri",
    "opening_hours": "Mo-Tu off; We 14:00-18:00; Th 12:00-18:00; Fr-Su off; week 2-52/2 Fr 10:00-14:00",
    "second_hand": "only",
    "shop": "clothes",
    "website": "http://www.kolibri.kgdena.com"
  }
},
{
  "type": "node",
  "id": 2460607987,
  "lat": 50.8359906,
  "lon": 4.3567691,
  "tags": {
    "addr:city": "Ixelles - Elsene",
    "addr:housenumber": "46",
    "addr:postcode": "1050",
    "addr:street": "Avenue de la Toison d'Or - Gulden-Vlieslaan",
    "name": "Oxfam Solidarité",
    "phone": "+32 2 512 87 41",
    "ref:UrbIS": "7918179",
    "second_hand": "only",
    "shop": "clothes",
    "website": "https://www.oxfamsol.be/"
  }
},
{
  "type": "node",
  "id": 2461439700,
  "lat": 48.6349539,
  "lon": -2.2567953,
  "tags": {
    "addr:housenumber": "9bis",
    "second_hand": "only",
    "shop": "books"
  }
},
{
  "type": "node",
  "id": 2462248746,
  "lat": 43.6005436,
  "lon": 1.4426811,
  "tags": {
    "name": "Super Fripes",
    "second_hand": "only",
    "shop": "clothes",
    "source": "survey"
  }
},
{
  "type": "node",
  "id": 2464788543,
  "lat": 43.6021525,
  "lon": 1.4429934,
  "tags": {
    "clothes": "second_hand",
    "description": "Dépôt-Vente Vêtements Tissus et Cuirs",
    "name": "Diane",
    "ref:FR:SIRET": "32429958500038",
    "second_hand": "only",
    "shop": "clothes",
    "source": "survey",
    "source:ref:FR:SIRET": "INSEE - 06/2019"
  }
},
{
  "type": "node",
  "id": 2465161675,
  "lat": 44.8379114,
  "lon": -0.5751658,
  "tags": {
    "addr:city": "Bordeaux",
    "addr:housenumber": "73",
    "addr:postcode": "33000",
    "addr:street": "Rue du Loup",
    "name": "Trafic",
    "opening_hours": "Tu-Su 11:00-19:00",
    "second_hand": "only",
    "shop": "clothes",
    "website": "http://www.traficshop.fr/"
  }
},
{
  "type": "node",
  "id": 2465993953,
  "lat": 43.6030280,
  "lon": 1.4430904,
  "tags": {
    "clothes": "second_hand",
    "description": "Dépot-Vente",
    "name": "Au Choix de Sophie",
    "ref:FR:SIRET": "41812018400019",
    "second_hand": "only",
    "shop": "clothes",
    "source": "survey",
    "source:ref:FR:SIRET": "INSEE - 06/2019"
  }
},
{
  "type": "node",
  "id": 2474616508,
  "lat": 43.6013443,
  "lon": 1.4409388,
  "tags": {
    "contact:facebook": "https://www.facebook.com/Vertige-vintage-104669084365678/",
    "name": "Vertige Vintage",
    "second_hand": "only",
    "shop": "clothes"
  }
},
{
  "type": "node",
  "id": 2517188834,
  "lat": 45.4297504,
  "lon": 4.3899898,
  "tags": {
    "name": "La Banque du Livre",
    "opening_hours": "Mo-Sa 09:00-19:00",
    "second_hand": "only",
    "shop": "books"
  }
},
{
  "type": "node",
  "id": 2517664034,
  "lat": 45.4344871,
  "lon": 4.3896648,
  "tags": {
    "name": "Au Bouquiniste",
    "second_hand": "only",
    "shop": "books"
  }
},
{
  "type": "node",
  "id": 2518122779,
  "lat": 50.8514458,
  "lon": 4.3452534,
  "tags": {
    "contact:phone": "+32 2 503 69 93",
    "name": "Vêtue",
    "ref:UrbIS": "8315119",
    "second_hand": "only",
    "shop": "clothes"
  }
},
{
  "type": "node",
  "id": 2520271136,
  "lat": 47.4583189,
  "lon": 9.1182668,
  "tags": {
    "addr:city": "Henau",
    "addr:housenumber": "33a",
    "addr:postcode": "9247",
    "addr:street": "Felseggstrasse",
    "email": "info@motobene.ch",
    "fixme": "Position korrigieren, wenn Luftbild vorhanden",
    "name": "Motobene",
    "opening_hours": "Mo-Fr 08:00-12:00, 13:00-18:00; Sa 09:00-12:00",
    "operator": "Andreas Fraefel",
    "phone": "+41 71 951 13 13",
    "safety_inspection": "yes",
    "sales": "yes",
    "second_hand": "only",
    "shop": "motorcycle_repair",
    "website": "http://www.motobene.ch"
  }
},
{
  "type": "node",
  "id": 2521441001,
  "lat": 50.4522720,
  "lon": 3.9791733,
  "tags": {
    "name": "Mons Automobiles 141",
    "second_hand": "only",
    "shop": "car"
  }
},
{
  "type": "node",
  "id": 2522239093,
  "lat": 50.8488999,
  "lon": 4.3460208,
  "tags": {
    "addr:city": "Bruxelles - Brussel",
    "addr:city:fr": "Bruxelles",
    "addr:city:nl": "Brussel",
    "addr:country": "BE",
    "addr:housenumber": "25",
    "addr:postcode": "1000",
    "addr:street": "Rue des Chartreux - Kartuizersstraat",
    "addr:street:fr": "Rue des Chartreux",
    "addr:street:nl": "Kartuizersstraat",
    "name": "Isabelle Bajart",
    "opening_hours": "Mo,Tu 12:00-19:00; We-Sa 11:00-19:00",
    "phone": "+32 478 24 37 88",
    "ref:UrbIS": "8186935",
    "second_hand": "only",
    "shop": "clothes"
  }
},
{
  "type": "node",
  "id": 2522239132,
  "lat": 50.8488933,
  "lon": 4.3459334,
  "tags": {
    "addr:city": "Bruxelles - Brussel",
    "addr:city:fr": "Bruxelles",
    "addr:city:nl": "Brussel",
    "addr:country": "BE",
    "addr:housenumber": "27",
    "addr:postcode": "1000",
    "addr:street": "Rue des Chartreux - Kartuizersstraat",
    "addr:street:fr": "Rue des Chartreux",
    "addr:street:nl": "Kartuizersstraat",
    "name": "Gabriele Vintage",
    "opening_hours": "Mo,Tu 13:00-19:00; We-Sa 11:00-19:00",
    "phone": "+32 2 512 67 43",
    "ref:UrbIS": "8187427",
    "second_hand": "only",
    "shop": "clothes"
  }
},
{
  "type": "node",
  "id": 2536835896,
  "lat": 47.3864358,
  "lon": 8.1737271,
  "tags": {
    "name": "SecondHandShop",
    "second_hand": "only",
    "shop": "clothes"
  }
},
{
  "type": "node",
  "id": 2621320499,
  "lat": 47.4993525,
  "lon": 8.7256938,
  "tags": {
    "addr:city": "Winterthur",
    "addr:housenumber": "12",
    "addr:postcode": "8400",
    "addr:street": "Untertor",
    "layer": "1",
    "name": "Ernas Fundgrube",
    "opening_hours": "Tu 09:00-18:00; Th 13:00-20:00, Fr 09:00-13:00, Sa 11:00-16:00",
    "phone": "+41 52 213 28 00",
    "second_hand": "only",
    "shop": "second_hand"
  }
},
{
  "type": "node",
  "id": 2621328482,
  "lat": 47.4951603,
  "lon": 8.7651967,
  "tags": {
    "addr:city": "Winterthur",
    "addr:housename": "Gewerbehaus Harzach",
    "addr:housenumber": "12",
    "addr:postcode": "8404",
    "addr:street": "Fröschenweidstrasse",
    "alt_name": "Brockenstube Winterthur",
    "branch": "Winterthur",
    "name": "Brocki Winterthur",
    "opening_hours": "Tu-Fr 14:00-18:00; Sa 09:00-16:00",
    "operator": "Blaues Kreuz",
    "second_hand": "only",
    "shop": "second_hand",
    "website": "https://www.brockenstube-winterthur.ch/"
  }
},
{
  "type": "node",
  "id": 2621338819,
  "lat": 47.4977636,
  "lon": 8.7602488,
  "tags": {
    "addr:city": "Winterthur",
    "addr:housenumber": "39-41",
    "addr:postcode": "8404",
    "addr:street": "Industriestrasse",
    "name": "Brockenhaus Grüze",
    "opening_hours": "Mo-Fr 09:00-12:00, 13:30-18:30; Sa 09:00-16:00",
    "second_hand": "only",
    "shop": "second_hand"
  }
},
{
  "type": "node",
  "id": 2628338272,
  "lat": 47.3661711,
  "lon": 8.5620127,
  "tags": {
    "addr:city": "Zürich",
    "addr:housenumber": "94",
    "addr:postcode": "8032",
    "addr:street": "Asylstrasse",
    "name": "Caritas Secondhand",
    "opening_hours": "Mo-Fr 10:00-18:30; Sa 10:00-17:00",
    "second_hand": "only",
    "shop": "clothes",
    "website": "http://www.caritas-secondhand.ch/"
  }
},
{
  "type": "node",
  "id": 2749759236,
  "lat": 48.1094695,
  "lon": -1.6758125,
  "tags": {
    "image": "https://p5.storage.canalblog.com/56/72/749764/122413309.jpg",
    "name": "Rennes d'Arabie",
    "opening_hours": "Tu-Sa 11:00-19:00",
    "second_hand": "only",
    "shop": "books"
  }
},
{
  "type": "node",
  "id": 2767569611,
  "lat": 45.5273671,
  "lon": 4.8752825,
  "tags": {
    "addr:city": "Vienne",
    "addr:housenumber": "11",
    "addr:postcode": "38200",
    "addr:street": "Rue des Clercs",
    "description:fr": "Dépôt vente de vêtements.",
    "name": "Le dépôt de Camille",
    "phone": "+33 4 74 58 41 88",
    "second_hand": "only",
    "shop": "clothes",
    "website": "https://www.facebook.com/pages/LE-DEPOT-De-Camille/842865289080312"
  }
},
{
  "type": "node",
  "id": 2823887653,
  "lat": 50.6471869,
  "lon": 6.0040053,
  "tags": {
    "contact:phone": "+32 484 957122",
    "contact:website": "https://www.vzautomobile.be/",
    "name": "VZ Automobiles",
    "opening_hours": "Mo-Fr 08:00-18:00; Sa 09:00-16:00",
    "second_hand": "only",
    "shop": "car"
  }
},
{
  "type": "node",
  "id": 2825962867,
  "lat": 47.2564535,
  "lon": 6.9980509,
  "tags": {
    "name": "barba'troc",
    "second_hand": "only",
    "shop": "clothes"
  }
},
{
  "type": "node",
  "id": 2841422046,
  "lat": 45.6986501,
  "lon": 5.0175930,
  "tags": {
    "name": "AutoDiscount 69",
    "phone": "+33 6 29963456",
    "second_hand": "only",
    "shop": "car",
    "short_name": "AD69",
    "website": "http://www.ad69.fr"
  }
},
{
  "type": "node",
  "id": 2848152601,
  "lat": 48.8486860,
  "lon": 2.3472380,
  "tags": {
    "alt_name": "Léonce Laget",
    "name": "Pierre Brunet",
    "opening_hours": "Tu-Fr 09:30-12:00,14:00-18:00, Sa 10:00-12:00,14:00-17:00",
    "second_hand": "only",
    "shop": "books"
  }
},
{
  "type": "node",
  "id": 2864179162,
  "lat": 44.3486009,
  "lon": 2.5774993,
  "tags": {
    "addr:housenumber": "24",
    "addr:street": "Boulevard Denys Puech",
    "contact:email": "artgillibrairie@orange.fr",
    "contact:phone": "+33565429521",
    "description": "déménagement de la Place du Bourg le 10/2013",
    "name": "Librairie Gil",
    "opening_hours": "Mo 14:30-18:30; Tu-Sa 09:30-18:30",
    "second_hand": "only",
    "shop": "books",
    "source": "survey2014",
    "start_date": "10/2013"
  }
},
{
  "type": "node",
  "id": 2899980649,
  "lat": 50.2994759,
  "lon": 2.7454647,
  "tags": {
    "addr:city": "Arras",
    "addr:postcode": "62000",
    "addr:street": "Rue Alfred de Musset",
    "email": "contact@smav62.fr",
    "name": "Le cercle des objets",
    "opening_hours": "Tu-Fr 13:00-18:00; Sa 9:00-13:00",
    "operator": "SMAV",
    "second_hand": "only",
    "service:bicycle:retail": "yes",
    "service:bicycle:second_hand": "yes",
    "shop": "second_hand",
    "website": "https://www.smav62.fr/les-recycleries/"
  }
},
{
  "type": "node",
  "id": 2927502701,
  "lat": 48.8809912,
  "lon": 2.3271773,
  "tags": {
    "name": "Le Passé Composé",
    "opening_hours": "Mo-Fr 11:00-14:00,15:00-19:00; Sa 15:00-18:30",
    "second_hand": "only",
    "shop": "books"
  }
},
{
  "type": "node",
  "id": 2930120501,
  "lat": 47.6343708,
  "lon": 6.8539780,
  "tags": {
    "name": "Bouquinerie du Lion",
    "opening_hours": "Tu 10:00-13:00,14:00-18:30; We-Fr 14:00-18:30; Sa 10:00-12:00,14:00-18:30",
    "second_hand": "only",
    "shop": "books",
    "wheelchair": "limited"
  }
},
{
  "type": "node",
  "id": 2953254706,
  "lat": 45.7514552,
  "lon": 4.8414892,
  "tags": {
    "contact:email": "ateliervelo@free.fr",
    "description:covid19": "Sur rendez-vous",
    "name": "L'Atelier du Chat Perché",
    "opening_hours": "Tu 15:00-20:00; We 17:00-21:00; Fr 15:00-19:00",
    "opening_hours:covid19": "open",
    "operator": "Association Atelier du Chat Perché",
    "payment:cash": "yes",
    "payment:coins": "yes",
    "second_hand": "only",
    "service": "repair",
    "service:bicycle:bicycle": "yes",
    "service:bicycle:bike": "yes",
    "service:bicycle:chain_tool": "yes",
    "service:bicycle:diy": "yes",
    "service:bicycle:pump": "yes",
    "service:bicycle:repair": "yes",
    "service:bicycle:sales": "yes",
    "service:bicycle:second_hand": "yes",
    "service:bicycle:tools": "yes",
    "shop": "bicycle",
    "survey:date": "2019-02-02",
    "website": "http://www.chatperche.org/"
  }
},
{
  "type": "node",
  "id": 3020936678,
  "lat": 51.1399870,
  "lon": 4.9425408,
  "tags": {
    "addr:city": "Geel",
    "addr:country": "BE",
    "addr:housenumber": "164",
    "addr:postcode": "2440",
    "addr:street": "Antwerpseweg",
    "name": "Cars.164",
    "second_hand": "only",
    "shop": "car"
  }
},
{
  "type": "node",
  "id": 3044304930,
  "lat": 48.7869915,
  "lon": -3.2308834,
  "tags": {
    "name": "Filigrane du Passe",
    "opening_hours": "Tu, We 10:00-18:00; Fr, Sa 11:00-18:00",
    "second_hand": "only",
    "shop": "books",
    "source": "cadastre-dgi-fr source : Direction Générale des Impôts - Cadastre. Mise à jour : 2010"
  }
},
{
  "type": "node",
  "id": 3071376147,
  "lat": 49.0302360,
  "lon": 2.3329309,
  "tags": {
    "name": "La Friponnerie",
    "second_hand": "only",
    "shop": "clothes",
    "source": "survey"
  }
},
{
  "type": "node",
  "id": 3085755687,
  "lat": 48.6693948,
  "lon": 6.1703580,
  "tags": {
    "amenity": "charity",
    "name": "Secours Populaire Français - Antenne de Nancy Charmois",
    "second_hand": "only",
    "shop": "clothes",
    "source": "survey",
    "website": "https://www.secourspopulaire.fr/54/antenne-de-nancy-charmois"
  }
},
{
  "type": "node",
  "id": 3100142013,
  "lat": 48.1900663,
  "lon": 6.4747480,
  "tags": {
    "name": "Easy Cash",
    "phone": "+33 3 29 66 63 30",
    "second_hand": "only",
    "shop": "second_hand",
    "source": "cadastre-dgi-fr source : Direction Générale des Finances Publiques - Cadastre. Mise à jour : 2014"
  }
},
{
  "type": "node",
  "id": 3122834697,
  "lat": 51.0848766,
  "lon": 4.4470315,
  "tags": {
    "name": "Jos Van Looveren",
    "second_hand": "only",
    "shop": "car"
  }
},
{
  "type": "node",
  "id": 3136684929,
  "lat": 49.4395197,
  "lon": 1.0992773,
  "tags": {
    "addr:city": "Rouen",
    "addr:postcode": "76000",
    "addr:street": "Rue Molière",
    "name": "Bertran",
    "second_hand": "only",
    "tourism": "gallery"
  }
},
{
  "type": "node",
  "id": 3154963067,
  "lat": 47.5001972,
  "lon": 8.7298987,
  "tags": {
    "addr:housenumber": "57",
    "addr:street": "Stadthausstrasse",
    "level": "0",
    "name": "Antiquariat und Galerie im Rathausdurchgang",
    "opening_hours": "Tu-Fr 13:30-18:30; Sa 13:30-16:00; PH closed",
    "second_hand": "only",
    "shop": "books",
    "wheelchair": "limited"
  }
},
{
  "type": "node",
  "id": 3164644702,
  "lat": 44.3531073,
  "lon": 2.5769050,
  "tags": {
    "fixme": "ameliorer positionnement",
    "name": "Emmaüs Rodez",
    "operator": "Emmaüs",
    "second_hand": "only",
    "shop": "clothes",
    "source": "survey 2012"
  }
},
{
  "type": "node",
  "id": 3202044287,
  "lat": 45.1872473,
  "lon": 5.6852045,
  "tags": {
    "name": "Dégriff'Auto",
    "second_hand": "only",
    "shop": "car"
  }
},
{
  "type": "node",
  "id": 3202044288,
  "lat": 45.2553672,
  "lon": 5.6274959,
  "tags": {
    "addr:housenumber": "296",
    "addr:street": "Rue de la Béalière",
    "name": "LCT Occasion Auto",
    "second_hand": "only",
    "shop": "car"
  }
},
{
  "type": "node",
  "id": 3203413606,
  "lat": 44.8207027,
  "lon": -0.5833459,
  "tags": {
    "name": "Démarquez Vous",
    "second_hand": "only",
    "shop": "clothes"
  }
},
{
  "type": "node",
  "id": 3223388280,
  "lat": 49.1679565,
  "lon": -1.5953433,
  "tags": {
    "second_hand": "only",
    "shop": "books"
  }
},
{
  "type": "node",
  "id": 3257887667,
  "lat": 47.6491644,
  "lon": 9.1818771,
  "tags": {
    "name": "Humanus Brocki",
    "second_hand": "only",
    "shop": "yes",
    "website": "https://www.brockihumanus.com/"
  }
},
{
  "type": "node",
  "id": 3267097175,
  "lat": 47.2151688,
  "lon": -1.5590170,
  "tags": {
    "clothes": "women;men;children",
    "contact:email": "contact.kawaii.nantes@kilo-shop.fr",
    "contact:phone": "+33 2 40 89 27 22",
    "contact:website": "http://kilo-shop.com",
    "image": "https://encrypted-tbn0.gstatic.com/images?q=tbn:ANd9GcTmHHMagXNP7gKklaUF-7Nj0k7elNU7xi00sXirBigQJc-qxcXObQ",
    "level": "0;1",
    "name": "Kilo Shop",
    "note": "Voir https://wiki.openstreetmap.org/wiki/WikiProject_CircularEconomy pour conseils de cartographie.",
    "recycling:clothes": "yes",
    "recycling:shoes": "yes",
    "second_hand": "only",
    "shop": "clothes",
    "wheelchair": "no"
  }
},
{
  "type": "node",
  "id": 3273729870,
  "lat": 48.4263256,
  "lon": 0.0890814,
  "tags": {
    "addr:city": "Alençon",
    "addr:housenumber": "32",
    "addr:postcode": "61000",
    "addr:street": "Rue du Mans",
    "description": "Friperie et vinyles d’occasion",
    "facebook": "https://www.facebook.com/pg/Backttstyle/",
    "name": "Back to the Style",
    "second_hand": "only",
    "shop": "clothes",
    "source": "cadastre-dgi-fr source : Direction Générale des Finances Publiques - Cadastre. Mise à jour : 2015",
    "website": "https://crushonapp.com/vendor/back-to-the-style"
  }
},
{
  "type": "node",
  "id": 3294199753,
  "lat": 47.2085996,
  "lon": 7.5353780,
  "tags": {
    "name": "Jam Second",
    "second_hand": "only",
    "shop": "clothes"
  }
},
{
  "type": "node",
  "id": 3344911204,
  "lat": 50.8442125,
  "lon": 4.3450404,
  "tags": {
    "addr:city": "Bruxelles - Brussel",
    "addr:housenumber": "55",
    "addr:postcode": "1000",
    "addr:street": "Boulevard Maurice Lemonnier - Maurice Lemonnierlaan",
    "name": "Pêle-Mêle",
    "opening_hours": "Mo-Sa 10:00-18:30",
    "second_hand": "only",
    "shop": "books",
    "website": "https://pele-mele.be/"
  }
},
{
  "type": "node",
  "id": 3397970016,
  "lat": 47.3398448,
  "lon": 0.7153851,
  "tags": {
    "amenity": "recycling",
    "charity": "yes",
    "clothes": "women",
    "contact:city": "Chambray-lès-Tours",
    "contact:facebook": "https://www.facebook.com/pages/category/Community/La-Boutique-du-Coeur-622092214655107/",
    "contact:housenumber": "20",
    "contact:postcode": "37170",
    "contact:street": "avenue des Platanes",
    "description": "Vente des vêtements ou des chaussures issus de dons, à bas prix. C’est près de 18 tonnes de vêtements qui sont triés, remis en état, puis proposés à la vente chaque année. Présence d'un conteneur de dépôt de vêtements",
    "name": "La Boutique du Coeur",
    "note": "Voir https://wiki.openstreetmap.org/wiki/WikiProject_CircularEconomy pour des conseils de cartographie.",
    "opening_hours": "We,Fr 14:30-17:00",
    "recycling:clothes": "yes",
    "recycling:shoes": "yes",
    "recycling_type": "container",
    "second_hand": "only",
    "shop": "clothes",
    "source": "cadastre-dgi-fr source : Direction Générale des Impôts - Cadastre. Mise à jour : 2015"
  }
},
{
  "type": "node",
  "id": 3448264770,
  "lat": 50.5274528,
  "lon": 4.6259640,
  "tags": {
    "name": "Class Car",
    "second_hand": "only",
    "shop": "car"
  }
},
{
  "type": "node",
  "id": 3465915968,
  "lat": 47.3818466,
  "lon": 0.7205872,
  "tags": {
    "amenity": "deposit_sale",
    "name": "Dépot-Vente de Tours",
    "note": "Voir https://wiki.openstreetmap.org/wiki/WikiProject_CircularEconomy pour conseils de cartographie.",
    "recycling:clothes": "yes",
    "recycling:shoes": "yes",
    "second_hand": "only"
  }
},
{
  "type": "node",
  "id": 3466361035,
  "lat": 47.1750258,
  "lon": 7.5837351,
  "tags": {
    "contact:email": "tina.gerlafingrn@bluewin.ch",
    "contact:phone": "+41 32 675 06 60",
    "name": "Tina Kleiderbörse",
    "opening_hours": "Tu,Th 09:00-12:00,14:00-18:00; Sa 09:00-16:00",
    "second_hand": "only",
    "shop": "clothes"
  }
},
{
  "type": "node",
  "id": 3467698382,
  "lat": 45.4359815,
  "lon": 4.4190069,
  "tags": {
    "addr:city": "Saint-Etienne",
    "addr:housenumber": "47",
    "addr:postcode": "42100",
    "addr:street": "Rue Gauthier Dumont",
    "contact:website": "http://loire.envie.org/",
    "name": "Envie Loire Electroménager",
    "opening_hours": "Mo-Sa 10:00-19:00",
    "operator": "Envie",
    "phone": "+33 4 77333523",
    "second_hand": "only",
    "shop": "electronics",
    "wheelchair": "yes"
  }
},
{
  "type": "node",
  "id": 3508792778,
  "lat": 47.3083274,
  "lon": 0.5370014,
  "tags": {
    "addr:housenumber": "1",
    "name": "Broc'joujoux",
    "recycling:toys": "yes",
    "second_hand": "only",
    "shop": "toys"
  }
},
{
  "type": "node",
  "id": 3518095649,
  "lat": 47.5732049,
  "lon": 8.9467154,
  "tags": {
    "name": "Auto Motiv",
    "second_hand": "only",
    "shop": "car",
    "website": "http://auto-motiv.ch/"
  }
},
{
  "type": "node",
  "id": 3575145867,
  "lat": 48.8961049,
  "lon": 2.2573590,
  "tags": {
    "addr:housenumber": "4",
    "contact:phone": "+33 1 77 35 70 76",
    "name": "Mac Occas",
    "opening_hours": "Tu-Sa 10:30-13:30,14:30-19:00",
    "second_hand": "only",
    "shop": "computer",
    "wheelchair": "limited"
  }
},
{
  "type": "node",
  "id": 3588429226,
  "lat": 48.9062310,
  "lon": 2.2597862,
  "tags": {
    "addr:housenumber": "80",
    "brand": "Ewigo",
    "contact:phone": "+33983352207",
    "contact:website": "http://www.ewigo.com",
    "name": "Ewigo",
    "operator": "Ewigo",
    "second_hand": "only",
    "shop": "car"
  }
},
{
  "type": "node",
  "id": 3610953940,
  "lat": 47.2007253,
  "lon": -1.5456918,
  "tags": {
    "capacity:covid19": "1",
    "contact:facebook": "https://www.facebook.com/smartphonecitynantes/",
    "contact:phone": "+33 2 53 97 50 39",
    "contact:website": "http://www.smartphonecity.fr/",
    "description": "Spécialiste de la réparation de smartphone, tablettes et ordinateurs",
    "mobile_phone:repair": "yes",
    "name": "SmartPhone City",
    "opening_hours": "Mo 12:00-18:30; Tu-Fr 09:30-18:30; Sa 10:30-18:00",
    "opening_hours:covid19": "open",
    "second_hand": "only",
    "shop": "mobile_phone",
    "survey:date": "2018-12-09"
  }
},
{
  "type": "node",
  "id": 3637810544,
  "lat": 48.1123480,
  "lon": -1.6079228,
  "tags": {
    "addr:city": "Cesson-Sévigné",
    "addr:housenumber": "19",
    "addr:postcode": "35510",
    "addr:street": "Avenue des Peupliers",
    "name": "Autovalley",
    "opening_hours": "Mo-Fr 09:00-12:00, 14:00-19:00; Sa 09:00-12:00, 14:00-18:00",
    "phone": "+33 2 99 83 33 68",
    "second_hand": "only",
    "shop": "car",
    "source:addr": "Rennes Métropole",
    "source:addr:housenumber:ref": "44035",
    "source:addr:version": "2016-04-01",
    "website": "https://www.autovalley.fr/"
  }
},
{
  "type": "node",
  "id": 3655664616,
  "lat": 48.1150612,
  "lon": -1.6792916,
  "tags": {
    "image": "http://www.ocd.fr/wp-content/uploads/2014/09/paysage110.jpg",
    "name": "O’CD",
    "opening_hours": "Mo-Sa 10:30-19:30",
    "recycling:cds": "yes",
    "second_hand": "only",
    "shop": "music"
  }
},
{
  "type": "node",
  "id": 3679967887,
  "lat": 46.7234809,
  "lon": -1.4238568,
  "tags": {
    "name": "Parc Occasions Océane Auto",
    "operator": "Océane Automobile",
    "second_hand": "only",
    "shop": "car"
  }
},
{
  "type": "node",
  "id": 3712073128,
  "lat": 49.9002283,
  "lon": 2.3471683,
  "tags": {
    "addr:city": "Camon",
    "addr:housenumber": "174",
    "addr:postcode": "80450",
    "addr:street": "Rue Lucien Barbier",
    "name": "Emmaüs",
    "opening_hours": "Tu-Fr 14:00-17:30; Sa 10:00-12:00,14:00-17:30",
    "phone": "+33 3 22 70 77 07",
    "second_hand": "only",
    "shop": "charity",
    "website": "http://emmauscamon80.e-monsite.com/"
  }
},
{
  "type": "node",
  "id": 3713882072,
  "lat": 45.7626230,
  "lon": 4.9385845,
  "tags": {
    "name": "Bric à Brac Décines-Charpieu",
    "opening_hours": "Tu 14:30-17:30; We-Th 14:30-17:30; PH off",
    "operator": "Foyer Notre-Dame des Sans-Abri",
    "phone": "+33 9 70 71 11 95",
    "second_hand": "only",
    "shop": "charity",
    "short_name": "Bric à Brac",
    "source": "knowledge",
    "website": "https://www.fndsa.org/bric-a-brac/bric-a-brac-decines.html"
  }
},
{
  "type": "node",
  "id": 3713882073,
  "lat": 45.7404638,
  "lon": 4.8504537,
  "tags": {
    "name": "Bric à Brac Lyon 7e – Rue de Toulon",
    "opening_hours": "Tu-Fr 14:30-17:30; PH off",
    "operator": "Foyer Notre-Dame des Sans-Abri",
    "phone": "+33 4 72 73 09 27",
    "second_hand": "only",
    "shop": "charity",
    "short_name": "Bric à Brac",
    "source": "knowledge",
    "start_date": "2015-08-25",
    "website": "https://www.fndsa.org/bric-a-brac/bric-a-brac-rue-de-toulon.html"
  }
},
{
  "type": "node",
  "id": 3715605075,
  "lat": 45.7795388,
  "lon": 4.8341157,
  "tags": {
    "name": "Bric à Brac Lyon 4e – Croix-Rousse",
    "opening_hours": "Mo-Fr 14:30-17:30, Sa 09:30-12:00; PH off",
    "operator": "Foyer Notre-Dame des Sans-Abri",
    "phone": "+33 4 72 07 94 89",
    "second_hand": "only",
    "shop": "charity",
    "short_name": "Bric à Brac",
    "website": "https://www.fndsa.org/",
    "wheelchair": "limited"
  }
},
{
  "type": "node",
  "id": 3715605076,
  "lat": 45.7172491,
  "lon": 4.8103936,
  "tags": {
    "name": "Bric à Brac Oullins",
    "opening_hours": "Mo, We, Fr 14:30-17:30; Sa 09:00-12:00; PH off",
    "operator": "Foyer Notre-Dame des Sans-Abri",
    "phone": "+33 4 72 66 95 02",
    "second_hand": "only",
    "shop": "charity",
    "short_name": "Bric à Brac",
    "website": "https://www.fndsa.org/bric-a-brac/bric-a-brac-oullins.html"
  }
},
{
  "type": "node",
  "id": 3715605077,
  "lat": 45.7771835,
  "lon": 4.7992666,
  "tags": {
    "name": "Bric à Brac Lyon 9e – Vaise",
    "opening_hours": "Mo, We, Fr 14:30-17:30; Sa 09:00-12:00; PH off",
    "operator": "Foyer Notre-Dame des Sans-Abri",
    "phone": "+33 4 78 47 13 47",
    "second_hand": "only",
    "shop": "charity",
    "short_name": "Bric à Brac",
    "website": "https://www.fndsa.org/bric-a-brac/bric-a-brac-lyon-vaise.html"
  }
},
{
  "type": "node",
  "id": 3740998262,
  "lat": 43.6802457,
  "lon": 4.1071448,
  "tags": {
    "addr:city": "Lunel",
    "addr:housenumber": "171",
    "addr:postcode": "34400",
    "addr:street": "Rue des Compagnons",
    "name": "Le Hangar",
    "opening_hours": "Mo 10:00-12:00,14:00-19:00; Tu-Sa 09:00-12:00,14:00-19:00",
    "phone": "+33 7 72 10 16 27",
    "second_hand": "only",
    "shop": "clothes"
  }
},
{
  "type": "node",
  "id": 3765276257,
  "lat": 49.6609259,
  "lon": 3.3672876,
  "tags": {
    "contact:phone": "+33 3 23 56 54 07",
    "name": "Aux Trésors d'Antan",
    "opening_hours": "Mo-Sa 09:00-12:30,14:00-18:00; Su 14:00-18:00",
    "second_hand": "only",
    "shop": "antiques",
    "website": "https://www.auxtresorsdantan.com/"
  }
},
{
  "type": "node",
  "id": 3779087260,
  "lat": 51.0373658,
  "lon": 4.1288245,
  "tags": {
    "name": "Dendercars",
    "second_hand": "only",
    "shop": "car"
  }
},
{
  "type": "node",
  "id": 3779087262,
  "lat": 51.0370628,
  "lon": 4.1267441,
  "tags": {
    "brand": "PlusCars.be",
    "name": "De Smedt",
    "second_hand": "only",
    "shop": "car",
    "website": "https://pluscars.be/"
  }
},
{
  "type": "node",
  "id": 3796658242,
  "lat": 45.4357682,
  "lon": 4.3907442,
  "tags": {
    "contact:facebook": "http://www.facebook.com/La-Belette-722732767825448/",
    "contact:website": "http://www.la-belette.com",
    "name": "La Belette",
    "second_hand": "only",
    "shop": "clothes"
  }
},
{
  "type": "node",
  "id": 3817583249,
  "lat": 45.5998177,
  "lon": 4.0691489,
  "tags": {
    "addr:city": "Montbrison",
    "addr:housenumber": "22",
    "addr:postcode": "42600",
    "addr:street": "Rue de Rigaud",
    "name": "Emmaüs",
    "phone": "+33 4 77 58 63 31",
    "second_hand": "only",
    "shop": "second_hand",
    "website": "https://www.emmaus-saint-etienne.fr/association-montbrison"
  }
},
{
  "type": "node",
  "id": 3871762527,
  "lat": 47.2157156,
  "lon": -1.5584820,
  "tags": {
    "addr:city": "Nantes",
    "addr:housenumber": "5",
    "addr:postcode": "44000",
    "addr:street": "Rue de l'Arche Sèche",
    "contact:email": "nantes@gamecash.fr",
    "contact:phone": "+33 2 52 10 05 61",
    "contact:website": "https://www.gamecash.fr/magasin-gamecash-nantes-m68.html",
    "description": "jeux vidéo et consoles nouvelle génération d'occasion et reconditionnés : PS4, Xbox One, Switch, Wii U, 3DS, PS3, Xbox 360, etc. Vente de produits multimédias (smartphones, tablettes, PC…) reconditionnés.",
    "image": "https://www.gamecash.fr/thumbnail-650/nantes01-e54234.jpg",
    "name": "Gamecash",
    "note": "Voir https://wiki.openstreetmap.org/wiki/WikiProject_CircularEconomy pour conseils de cartographie.",
    "opening_hours": "Mo 13:00-19:00; Tu-Sa 10:00-19:00",
    "operator": "Entreprise Game Cash",
    "recycling:computers": "yes",
    "recycling:mobile_phones": "yes",
    "safety:mask:covid19": "yes",
    "second_hand": "only",
    "shop": "video_games",
    "survey:date": "2020-05-14",
    "vending": "jeux vidéos; consoles; smartphones; tablettes; PC",
    "wheelchair": "yes"
  }
},
{
  "type": "node",
  "id": 3877899768,
  "lat": 51.2801916,
  "lon": 4.4188406,
  "tags": {
    "addr:housenumber": "17",
    "addr:postcode": "2180",
    "addr:street": "Kloosterstraat",
    "name": "Pastis",
    "opening_hours": "We-Sa 10:00-18:00; Mo,Tu,Su,PH off",
    "second_hand": "only",
    "shop": "clothes",
    "website": "http://pastis-tweedehands.be/"
  }
},
{
  "type": "node",
  "id": 3885849925,
  "lat": 50.8238869,
  "lon": 4.3591343,
  "tags": {
    "addr:city": "Ixelles - Elsene",
    "addr:housenumber": "15",
    "addr:postcode": "1050",
    "addr:street": "Rue du Page - Edelknaapstraat",
    "contact:phone": "+32 2 539 20 28",
    "name": "Nijinski",
    "opening_hours": "Mo-Sa 11:00-19:00",
    "second_hand": "only",
    "shop": "books"
  }
},
{
  "type": "node",
  "id": 3885962557,
  "lat": 50.8302435,
  "lon": 4.3694854,
  "tags": {
    "addr:city": "Ixelles - Elsene",
    "addr:housenumber": "254",
    "addr:postcode": "1050",
    "addr:street": "Chaussée d'Ixelles - Elsense Steenweg",
    "contact:email": "bookshop.ixelles@oxfamsol.be",
    "name": "Oxfam Bookshop",
    "opening_hours": "Mo-Sa 10:00-18:00",
    "operator": "Oxfam Solidarité",
    "phone": "+32 2 648 58 42",
    "second_hand": "only",
    "shop": "books",
    "website": "https://www.oxfamsol.be/"
  }
},
{
  "type": "node",
  "id": 3886164236,
  "lat": 50.8229914,
  "lon": 4.3594088,
  "tags": {
    "addr:city": "Ixelles - Elsene",
    "addr:postcode": "1050",
    "addr:street": "Rue Américaine - Amerikaanse straat",
    "check_date:opening_hours": "2020-11-14",
    "internet_access": "wlan",
    "name": "Les Petits Riens - Spullenhulp",
    "name:fr": "Les Petits Riens",
    "name:nl": "Spullenhulp",
    "opening_hours": "Mo-Sa 10:30-18:00",
    "phone": "+32 2 537 30 26",
    "second_hand": "only",
    "shop": "second_hand",
    "website": "https://petitsriens.be/",
    "wheelchair": "yes"
  }
},
{
  "type": "node",
  "id": 3886186777,
  "lat": 50.8318055,
  "lon": 4.3679176,
  "tags": {
    "addr:city": "Ixelles - Elsene",
    "addr:housenumber": "197",
    "addr:postcode": "1050",
    "addr:street": "Chaussée d'Ixelles - Elsense Steenweg",
    "brand": "Le Temps des Cerises",
    "brand:wikidata": "Q3162640",
    "brand:wikipedia": "fr:Le Temps des cerises (vêtements)",
    "name": "Le Temps des Cerises",
    "opening_hours": "We-Sa 11:00-19:00",
    "phone": "+32 2 646 02 19",
    "second_hand": "only",
    "shop": "clothes"
  }
},
{
  "type": "node",
  "id": 3886195176,
  "lat": 50.8489817,
  "lon": 4.3454693,
  "tags": {
    "addr:city": "Bruxelles - Brussel",
    "addr:housenumber": "48",
    "addr:postcode": "1000",
    "addr:street": "Rue du Vieux Marché aux Grains - Oude Graanmarkt",
    "name": "Think Twice",
    "opening_hours": "Mo-Sa 10:00-18:00",
    "phone": "+32 491 74 06 06",
    "second_hand": "only",
    "shop": "clothes",
    "website": "https://thinktwice-secondhand.be/"
  }
},
{
  "type": "node",
  "id": 3886200691,
  "lat": 50.8450522,
  "lon": 4.3530428,
  "tags": {
    "addr:city": "Bruxelles - Brussel",
    "addr:housenumber": "71",
    "addr:postcode": "1000",
    "addr:street": "Rue des Éperonniers - Spoormakersstraat",
    "contact:phone": "+32 471 55 89 45",
    "contact:website": "http://thinktwice-secondhand.be/shops/vintage-shop-spoormakersstraat-bruxelles/",
    "name": "Think Twice",
    "opening_hours": "Mo-Sa 10:00-18:00",
    "second_hand": "only",
    "shop": "clothes"
  }
},
{
  "type": "node",
  "id": 3886207042,
  "lat": 50.8278697,
  "lon": 4.3627512,
  "tags": {
    "addr:city": "Ixelles - Elsene",
    "addr:housenumber": "175-177",
    "addr:postcode": "1050",
    "addr:street": "Avenue Louise - Louizalaan",
    "name": "Les enfants d'Edouard",
    "opening_hours": "Mo-Sa 10:00-18:30",
    "phone": "+32 2 640 42 45",
    "second_hand": "only",
    "shop": "clothes",
    "toilets:wheelchair": "no",
    "website": "http://www.lesenfantsdedouard.com",
    "wheelchair": "no"
  }
},
{
  "type": "node",
  "id": 3886215262,
  "lat": 50.8138946,
  "lon": 4.3459173,
  "tags": {
    "addr:city": "Uccle - Ukkel",
    "addr:housenumber": "160",
    "addr:postcode": "1180",
    "addr:street": "Rue Vanderkindere - Vanderkinderestraat",
    "name": "Les Petits Riens",
    "opening_hours": "Mo-Sa 10:30-18:00",
    "phone": "+32 2 344 24 42",
    "second_hand": "only",
    "shop": "clothes"
  }
},
{
  "type": "node",
  "id": 3886216416,
  "lat": 50.8035545,
  "lon": 4.3374986,
  "tags": {
    "addr:city": "Uccle - Ukkel",
    "addr:housenumber": "38",
    "addr:postcode": "1180",
    "addr:street": "Rue Xavier De Bue - Xavier De Buestraat",
    "name": "Les Petits Riens",
    "opening_hours": "Mo-Sa 10:30-18:00",
    "phone": "+32 2 203 63 96",
    "second_hand": "only",
    "shop": "clothes"
  }
},
{
  "type": "node",
  "id": 3902747160,
  "lat": 47.4960361,
  "lon": 8.7407752,
  "tags": {
    "addr:city": "Winterthur",
    "addr:housenumber": "8",
    "addr:postcode": "8400",
    "addr:street": "Pflanzschulstrasse",
    "name": "Spiel & Sport Börse",
    "opening_hours": "Tu-Fr 09:00-11:30,14:00-18:30; Sa 09:00-16:00",
    "phone": "+41 52 232 95 93",
    "second_hand": "only",
    "shop": "second_hand",
    "source": "website",
    "website": "https://www.spielundsportboerse.ch/"
  }
},
{
  "type": "node",
  "id": 3908375490,
  "lat": 45.0682492,
  "lon": 4.8660223,
  "tags": {
    "amenity": "public_bookcase",
    "fee": "no",
    "name": "La Boîte à Lire",
    "public_bookcase:type": "reading_box",
    "second_hand": "only"
  }
},
{
  "type": "node",
  "id": 3930409300,
  "lat": 50.8517380,
  "lon": 4.3448090,
  "tags": {
    "name": "Passa Porta bookshop II",
    "opening_hours": "Mo-Sa 11:00-19:00",
    "second_hand": "only",
    "shop": "books"
  }
},
{
  "type": "node",
  "id": 3981771975,
  "lat": 51.2180159,
  "lon": 3.6179784,
  "tags": {
    "name": "Bart Vereecke",
    "second_hand": "only",
    "shop": "car",
    "website": "http://www.bartvereecke.be"
  }
},
{
  "type": "node",
  "id": 3985239973,
  "lat": 47.7328677,
  "lon": -3.4200703,
  "tags": {
    "contact:phone": "+33 2 97 56 77 30",
    "name": "Nemesis West",
    "second_hand": "only",
    "shop": "car",
    "source": "survey"
  }
},
{
  "type": "node",
  "id": 3994196925,
  "lat": 51.1098145,
  "lon": 4.0739518,
  "tags": {
    "name": "De Rijbel",
    "second_hand": "only",
    "service": "repair",
    "shop": "car"
  }
},
{
  "type": "node",
  "id": 3998799108,
  "lat": 44.8332823,
  "lon": -0.5675193,
  "tags": {
    "name": "AMOS",
    "operator": "AMOS",
    "second_hand": "only",
    "shop": "clothes"
  }
},
{
  "type": "node",
  "id": 4008178651,
  "lat": 48.7022560,
  "lon": 6.2140809,
  "tags": {
    "addr:housenumber": "116",
    "amenity": "charity",
    "name": "Secours Populaire Français - Antenne de Saint-Max",
    "second_hand": "only",
    "shop": "clothes",
    "source": "survey",
    "website": "https://www.secourspopulaire.fr/54/saint-max"
  }
},
{
  "type": "node",
  "id": 4029792890,
  "lat": 50.8670372,
  "lon": 4.3165202,
  "tags": {
    "addr:city": "Koekelberg",
    "addr:postcode": "1081",
    "addr:street": "Parvis de la Basilique - Basiliekvoorplein",
    "description": "Entrance near door nbr 4",
    "name": "Le Vestiaire",
    "opening_hours": "Th 14:00-15:30; PH off",
    "operator": "Unité pastorale Père Damien",
    "second_hand": "only",
    "shop": "clothes"
  }
},
{
  "type": "node",
  "id": 4029958576,
  "lat": 50.8170836,
  "lon": 4.3876265,
  "tags": {
    "addr:city": "Ixelles - Elsene",
    "addr:housenumber": "18",
    "addr:postcode": "1050",
    "addr:street": "Avenue Brillat-Savarin - Brillat-Savarinlaan",
    "name": "Oxfam - Magasin du Monde",
    "note": "Magasin de vêtements de seconde main (hommes, femmes, enfants) dont la vente est réalisée au profit d'Oxfam-MDM. On y trouve aussi des produits d'épicerie issus du commerce équitable.",
    "opening_hours": "Tu-Fr 10:00-18:00; Sa 13:00-18:00",
    "operator": "Oxfam MDM",
    "phone": "+32 2 672 32 94",
    "second_hand": "only",
    "shop": "clothes",
    "website": "http://www.omdm.be"
  }
},
{
  "type": "node",
  "id": 4029958577,
  "lat": 50.8730932,
  "lon": 4.3896726,
  "tags": {
    "addr:city": "Schaerbeek - Schaarbeek",
    "addr:housenumber": "2",
    "addr:postcode": "1030",
    "addr:street": "Place de Helmet - Helmetseplein",
    "contact:phone": "+32 2 245 78 81",
    "contact:website": "https://www.oxfammagasinsdumonde.be",
    "description:fr": "Magasin de vêtements de seconde main dont la vente est réalisée au profit d'Oxfam-MDM. On y trouve aussi des produits d'épicerie et d'artisanat issus du commerce équitable.",
    "name": "Oxfam-Magasins du monde",
    "opening_hours": "Su,Mo off; Tu-Sa 10:00-18:00",
    "operator": "Oxfam MDM",
    "second_hand": "only",
    "shop": "clothes"
  }
},
{
  "type": "node",
  "id": 4029958578,
  "lat": 50.8302718,
  "lon": 4.3694667,
  "tags": {
    "addr:city": "Ixelles - Elsene",
    "addr:housenumber": "252",
    "addr:postcode": "1050",
    "addr:street": "Chaussée d'Ixelles - Elsense Steenweg",
    "contact:email": "informatique.ixelles@oxfamsol.be",
    "facebook": "https://www.facebook.com/pages/Oxfam-Computershop-IxellesElsene/1484428835166772?ref=hl",
    "name": "Oxfam Computershop",
    "opening_hours": "Mo-Sa 10:00-18:00",
    "operator": "Oxfam Solidarité",
    "phone": "+32 2 647 48 51",
    "second_hand": "only",
    "shop": "computer",
    "website": "http://ww.oxfamsol.be",
    "wheelchair": "no"
  }
},
{
  "type": "node",
  "id": 4029958579,
  "lat": 50.8222448,
  "lon": 4.3423360,
  "tags": {
    "addr:city": "Saint-Gilles - Sint-Gillis",
    "addr:housenumber": "139",
    "addr:postcode": "1060",
    "addr:street": "Chaussée d'Alsemberg - Alsembergse Steenweg",
    "contact:website": "http://www.cadavresexquis.be/",
    "description:fr": "Centre de recyclage textile; récupération, transformation de vêtements de seconde, cours de couture",
    "name": "Cadavres Exquis asbl",
    "second_hand": "only",
    "shop": "clothes"
  }
},
{
  "type": "node",
  "id": 4099591416,
  "lat": 51.0977591,
  "lon": 5.1932065,
  "tags": {
    "addr:city": "Ham",
    "addr:housenumber": "46",
    "addr:postcode": "3945",
    "addr:street": "Geneberg",
    "brand": "Citroën",
    "email": "info@lenebvba.be",
    "name": "L&E bvba",
    "opening_hours": "Mo-Fr 08:15-18:00; Sa 08:15-12:00",
    "phone": "+32 11 34 10 48",
    "second_hand": "only",
    "shop": "car",
    "website": "http://www.lenebvba.be/"
  }
},
{
  "type": "node",
  "id": 4102574789,
  "lat": 49.1176925,
  "lon": 6.1804605,
  "tags": {
    "description": "Boutique vintage, Dépôt-vente",
    "name": "Moules Fripes",
    "opening_hours": "Th-Sa 10:00-19:00; Tu 10:00-19:00",
    "second_hand": "only",
    "shop": "clothes",
    "source": "survey",
    "survey:date": "2017-07"
  }
},
{
  "type": "node",
  "id": 4119820066,
  "lat": 45.3221730,
  "lon": 0.5857472,
  "tags": {
    "addr:city": "Bourdeilles",
    "addr:postcode": "24310",
    "addr:street": "Grande Rue",
    "name": "Le Tri-Cycle Enchanté",
    "phone": "+33 5 53 03 73 04",
    "second_hand": "only",
    "shop": "second_hand",
    "website": "http://www.tri-cycle.org",
    "wheelchair": "no"
  }
},
{
  "type": "node",
  "id": 4126134389,
  "lat": 48.8465706,
  "lon": 2.3207437,
  "tags": {
    "addr:city": "Paris",
    "addr:housenumber": "110",
    "addr:postcode": "75006",
    "addr:street": "Rue du Cherche-Midi",
    "clothes": "women",
    "currency:EUR": "yes",
    "currency:others": "no",
    "name": "Chercheminippes Accessoires de Mode",
    "opening_hours": "Mo-Sa 11:00-19:00",
    "operator": "SARL Chercheminippes",
    "phone": "+33 1 42 22 33 89",
    "second_hand": "only",
    "shop": "clothes",
    "website": "http://chercheminippes.fr"
  }
},
{
  "type": "node",
  "id": 4143109896,
  "lat": 45.8920702,
  "lon": 6.1172138,
  "tags": {
    "addr:city": "Seynod",
    "addr:housenumber": "3",
    "addr:postcode": "74600",
    "addr:street": "Avenue des Trois Fontaines",
    "contact:phone": "+33 4 50 51 83 77",
    "contact:website": "https://www.bazarsansfrontieres.fr/",
    "name": "Bazar sans Frontières",
    "second_hand": "only",
    "service:bicycle:retail": "yes",
    "shop": "second_hand"
  }
},
{
  "type": "node",
  "id": 4171330776,
  "lat": -21.3403930,
  "lon": 55.4734013,
  "tags": {
    "name": "Cash Express",
    "second_hand": "only",
    "shop": "second_hand"
  }
},
{
  "type": "node",
  "id": 4171330781,
  "lat": -21.3411230,
  "lon": 55.4781888,
  "tags": {
    "brand": "Cash Converters",
    "brand:wikidata": "Q5048645",
    "brand:wikipedia": "en:Cash Converters",
    "name": "Cash Converters",
    "second_hand": "only",
    "shop": "pawnbroker"
  }
},
{
  "type": "node",
  "id": 4171534263,
  "lat": 46.7824925,
  "lon": 4.9112990,
  "tags": {
    "name": "Did'Auto",
    "second_hand": "only",
    "shop": "car"
  }
},
{
  "type": "node",
  "id": 4185626789,
  "lat": 47.1872029,
  "lon": -1.5476991,
  "tags": {
    "amenity": "recycling",
    "charity": "yes",
    "contact:city": "Rezé",
    "contact:housenumber": "17",
    "contact:postcode": "44400",
    "contact:street": "Chemin Fontaine Launay",
    "description": "Reconditionnement et don d'ordinateurs sous Linux. Sur rendez-vous uniquement.",
    "email": "contact@naga44.org",
    "image": "http://www.mieuxtrieranantes.fr/docs/medias/StructuresReemploi/Naga/Naga_03.jpg",
    "name": "Nâga",
    "note": "Voir https://wiki.openstreetmap.org/wiki/WikiProject_CircularEconomy pour conseils de cartographie.",
    "office": "ngo",
    "opening_hours": "\"By appointment only\"",
    "operator": "Association Nâga",
    "phone": "+33 2 85 52 31 22",
    "recycling:computers": "yes",
    "recycling_type": "centre",
    "second_hand": "only",
    "shop": "computer",
    "smoking": "outside",
    "source": "MieuxTrierANantes",
    "website": "https://www.naga44.org/"
  }
},
{
  "type": "node",
  "id": 4214268739,
  "lat": 51.3409966,
  "lon": 4.6191029,
  "tags": {
    "second_hand": "only",
    "shop": "car"
  }
},
{
  "type": "node",
  "id": 4218199234,
  "lat": 47.4081383,
  "lon": 8.5474312,
  "tags": {
    "addr:city": "Zürich",
    "addr:housenumber": "11",
    "addr:postcode": "8050",
    "addr:street": "Schwamendingenstrasse",
    "name": "Caritas Secondhand",
    "opening_hours": "Mo-Fr 10:00-18:30; Sa 10:00-17:00",
    "second_hand": "only",
    "shop": "clothes",
    "website": "http://www.caritas-secondhand.ch/"
  }
},
{
  "type": "node",
  "id": 4228653827,
  "lat": 45.4363491,
  "lon": 4.3866520,
  "tags": {
    "contact:website": "https://www.dealeusedechiffons.com",
    "name": "Dealeuse de Chiffons",
    "old_name": "Maraval Couture",
    "second_hand": "only",
    "shop": "clothes"
  }
},
{
  "type": "node",
  "id": 4244068292,
  "lat": 47.2046171,
  "lon": -1.5752436,
  "tags": {
    "charity": "yes",
    "clothes": "suits;shoes;baby;men;women;children",
    "contact:city": "Nantes",
    "contact:housenumber": "22",
    "contact:phone": "+33 2 40 69 38 22",
    "contact:postcode": "44100",
    "contact:street": "quai Ernest Renaud",
    "contact:website": "https://www.secourspopulaire.fr/pop-fringues",
    "location": "overground",
    "name": "Pop' Fringues",
    "note": "See https://wiki.openstreetmap.org/wiki/WikiProject_CircularEconomy for manual",
    "opening_hours": "Mo-Fr 13:00-17:00; We,PH off",
    "operator": "Secours Populaire Français Nantes",
    "recycling:clothes": "yes",
    "second_hand": "only",
    "shop": "clothes",
    "source": "MieuxTrierANantes"
  }
},
{
  "type": "node",
  "id": 4244123437,
  "lat": 47.3787163,
  "lon": 8.5326329,
  "tags": {
    "addr:housenumber": "31",
    "addr:street": "Europaallee",
    "contact:facebook": "https://www.facebook.com/revendo.ch/",
    "contact:instagram": "https://www.instagram.com/revendo.ch/",
    "level": "0",
    "name": "Revendo",
    "opening_hours": "Mo 11:00-19:00, Tu-Fr 09:00-19:00, Sa 09:00-18:00",
    "phone": "+41 44 533 79 44",
    "repair": "yes",
    "second_hand": "only",
    "shop": "computer",
    "website": "https://revendo.ch/",
    "wheelchair": "yes"
  }
},
{
  "type": "node",
  "id": 4256191332,
  "lat": 46.8145811,
  "lon": 7.4297002,
  "tags": {
    "description": "Kinderkleiderbörse",
    "email": "kikleboe-gwunder@bluewin.ch",
    "name": "KiKleBö Gwunder",
    "opening_hours": "Mo off;Tu 09:00-12:00,14:00-17:00;We off;Th 09:00-12:00,14:00-17:00;Fr off;Sa[1] 10:00-15:00;Su off",
    "second_hand": "only",
    "shop": "clothes",
    "website": "https://www.kikleboe-gwunder.net/"
  }
},
{
  "type": "node",
  "id": 4272189915,
  "lat": 48.4025965,
  "lon": -4.4885113,
  "tags": {
    "addr:city": "Brest",
    "addr:housenumber": "55",
    "addr:postcode": "29200",
    "addr:street": "Rue Auguste Kervern",
    "name": "Recyclerie Un peu d'R",
    "opening_hours": "tu 14:30-18:00; we-fr 9:30-12:30, 14:30-18:00;sa 9:30-13:00",
    "second_hand": "only",
    "shop": "second_hand",
    "website": "https://unpeudr.fr/"
  }
},
{
  "type": "node",
  "id": 4281614489,
  "lat": 48.8528519,
  "lon": 2.3366321,
  "tags": {
    "addr:housenumber": "125",
    "addr:street": "Boulevard Saint-Germain",
    "clothes:vintage": "yes",
    "name": "Kilo-Shop",
    "second_hand": "only",
    "shop": "clothes"
  }
},
{
  "type": "node",
  "id": 4319327004,
  "lat": 49.4922599,
  "lon": 0.1073895,
  "tags": {
    "addr:city": "Le Havre",
    "addr:postcode": "76600",
    "addr:street": "Place de l'hôtel de ville",
    "name": "Cash Express",
    "second_hand": "only",
    "shop": "second_hand"
  }
},
{
  "type": "node",
  "id": 4323499191,
  "lat": 47.2121039,
  "lon": -1.5468574,
  "tags": {
    "amenity": "recycling",
    "charity": "yes",
    "contact:city": "Nantes",
    "contact:country": "FR",
    "contact:housenumber": "32",
    "contact:postcode": "44000",
    "contact:street": "rue Fouré",
    "description": "Les boutiques 'Ding Fring' proposent certains des vêtements déposés dans les bornes Le Relais : pull, lingerie, vestes, jupes, pantalons, laine, ceintures, vêtement de travail, livres, peluches... Un quart du stock renouvelé toutes les semaines.",
    "mapillary": "TJj_xOuGvGEj4IPJzZ4PvA",
    "name": "SCOP Ding Fring",
    "note": "Voir https://wiki.openstreetmap.org/wiki/WikiProject_CircularEconomy pour des conseils de cartographie.",
    "opening_hours": "Mo-Fr 10:00-18:45; Sa 10:00-18:15",
    "operator": "SCOP Le Relais Atlantique",
    "recycling:clothes": "yes",
    "recycling:shoes": "yes",
    "second_hand": "only",
    "shop": "clothes",
    "source": "Mieux trier à Nantes 2019",
    "wheelchair": "yes"
  }
},
{
  "type": "node",
  "id": 4330830794,
  "lat": 44.2413643,
  "lon": 5.0733581,
  "tags": {
    "name": "Bouquiniste",
    "second_hand": "only",
    "shop": "books"
  }
},
{
  "type": "node",
  "id": 4330866293,
  "lat": 44.2413617,
  "lon": 5.0732964,
  "tags": {
    "name": "Fashion's Second Life",
    "second_hand": "only",
    "shop": "clothes"
  }
},
{
  "type": "node",
  "id": 4335668040,
  "lat": 44.2416673,
  "lon": 5.0739763,
  "tags": {
    "name": "Livres et Collections",
    "second_hand": "only",
    "shop": "books"
  }
},
{
  "type": "node",
  "id": 4337666646,
  "lat": 44.8173303,
  "lon": 5.7521403,
  "tags": {
    "description": "Atelier d'auto-réparation de cycles",
    "name": "Recycleart",
    "opening_hours": "Mo 13:00-19:00; We 14:00-16:00",
    "second_hand": "only",
    "service:bicycle:diy": "yes",
    "service:bicycle:repair": "yes",
    "service:bicycle:second_hand": "no",
    "shop": "bicycle"
  }
},
{
  "type": "node",
  "id": 4364350633,
  "lat": 47.3714627,
  "lon": 8.5351339,
  "tags": {
    "level": "0",
    "name": "Anyo",
    "second_hand": "only",
    "shop": "clothes"
  }
},
{
  "type": "node",
  "id": 4382158533,
  "lat": 50.6429780,
  "lon": 3.0116415,
  "tags": {
    "contact:email": "envie-lomme@groupevitaminet.com",
    "contact:phone:sav": "+33 03 20 24 02 12",
    "level": "0",
    "name": "Envie Lomme",
    "opening_hours": "Mo-Sa 10:00-12:00,14:00-19:00",
    "phone": "+33 3 20 29 43 80",
    "second_hand": "only",
    "shop": "electronics",
    "website": "http://www.envienord.fr/index.php/magasins-electromenager/magasin-electromenager-lomme/",
    "wheelchair": "yes"
  }
},
{
  "type": "node",
  "id": 4395197525,
  "lat": 48.0163934,
  "lon": -4.5007118,
  "tags": {
    "clothes": "children",
    "name": "Ty Moutik",
    "second_hand": "only",
    "shop": "clothes",
    "wheelchair": "yes"
  }
},
{
  "type": "node",
  "id": 4410260120,
  "lat": 48.8404305,
  "lon": 2.3336833,
  "tags": {
    "name": "2roues1clic",
    "opening_hours": "Mo-Sa 10:00-19:00",
    "second_hand": "only",
    "shop": "motorcycle"
  }
},
{
  "type": "node",
  "id": 4413960397,
  "lat": 50.8455098,
  "lon": 4.3520047,
  "tags": {
    "name": "Vintage Outlet",
    "second_hand": "only",
    "shop": "clothes"
  }
},
{
  "type": "node",
  "id": 4436490005,
  "lat": 47.8410391,
  "lon": -0.3330995,
  "tags": {
    "charity": "yes",
    "contact:city": "Sablé-sur-Sarthe",
    "contact:postcode": "72300",
    "contact:street": "Rue Michel Vielle",
    "image": "https://koza.fr/wp-content/uploads/2017/03/sable-sur-sarthe_audit-energetique_batiment-tertiaire.jpg",
    "name": "Vesti-boutique (Croix Rouge)",
    "note": "Voir https://wiki.openstreetmap.org/wiki/WikiProject_CircularEconomy pour des conseils de cartographie.",
    "operator": "Association Croix Rouge",
    "recycling:clothes": "yes",
    "recycling:shoes": "yes",
    "second_hand": "only",
    "shop": "clothes"
  }
},
{
  "type": "node",
  "id": 4438960808,
  "lat": 46.8422177,
  "lon": -0.4921020,
  "tags": {
    "alt_name": "La Bootique des Ateliers du Bocage site de Bressuire",
    "computer:repair": "yes",
    "description": "Smartphones, ordinateurs portables, unités centrales reconditionnés par les Ateliers du Bocage - 100% fonctionnels et garantis 6 mois.",
    "email": "boutique.bressuire@adb-emmaus.com",
    "image": "http://esspresso.fr/wp-content/uploads/2015/02/vitrine-bootique-v1.jpg",
    "mobile_phone:repair": "yes",
    "name": "La Bootique des Ateliers du Bocage",
    "opening_hours": "Tu-Fr 09:30-12:30,14:00-18:30; Sa 10:00-13:00,13:30-18:00",
    "opening_hours:covid19": "Tu-Fr 09:30-12:30,14:00-18:30; Sa 10:00-13:00,13:30-17:30",
    "phone": "+33 5 49 74 15 81",
    "second_hand": "only",
    "shop": "computer",
    "website": "https://la-bootique.com/content/14-boutique-bressuire"
  }
},
{
  "type": "node",
  "id": 4457802266,
  "lat": 43.2999805,
  "lon": 5.3689278,
  "tags": {
    "addr:city": "Marseille",
    "addr:housenumber": "12",
    "addr:postcode": "13002",
    "addr:street": "Place de Lorette",
    "description": "L'association Histoires Sans Fin collecte, valorise et revend des meubles et des objets à petit prix.",
    "name": "Ressourcerie Histoires Sans Fin",
    "operator": "Association Histoires Sans Fin",
    "phone": "+33 4 91 31 79 54",
    "second_hand": "only",
    "shop": "second_hand",
    "website": "https://www.histoires-sans-fin.fr/"
  }
},
{
  "type": "node",
  "id": 4470169333,
  "lat": 51.3027882,
  "lon": 4.4092708,
  "tags": {
    "addr:housenumber": "136",
    "addr:postcode": "2940",
    "addr:street": "Antwerpse Steenweg",
    "email": "defons@skynet.be",
    "name": "Auto's De Fons",
    "opening_hours": "Mo-Fr 10:00-18:30; Sa 10:00-17:00; Su,PH off",
    "phone": "+32 3 605 52 00",
    "second_hand": "only",
    "shop": "car",
    "website": "http://www.defons.be/"
  }
},
{
  "type": "node",
  "id": 4470169334,
  "lat": 51.3025857,
  "lon": 4.4095828,
  "tags": {
    "addr:housenumber": "140",
    "addr:postcode": "2940",
    "addr:street": "Antwerpse Steenweg",
    "email": "info@autohandelivan.be",
    "name": "Autohandel Ivan",
    "opening_hours": "Mo-Fr 13:00-18:00; Sa 11:00-17:00; Su off",
    "phone": "+32 3 605 08 46",
    "second_hand": "only",
    "shop": "car",
    "website": "http://www.autohandelivan.be/"
  }
},
{
  "type": "node",
  "id": 4473668062,
  "lat": 50.9058430,
  "lon": 4.7080979,
  "tags": {
    "name": "Autostock Van Den Eynde",
    "second_hand": "only",
    "shop": "car"
  }
},
{
  "type": "node",
  "id": 4495727342,
  "lat": 47.2321400,
  "lon": -1.6521097,
  "tags": {
    "amenity": "recycling",
    "charity": "yes",
    "charity:description": "Créés par des membres d'Emmaûs, Envie regroupe désormais 50 entreprises, dont 2 en Loire Atlantique (Saint-Nazaire et Saint-Herblain), ce qui représente 90 salariés dans le département.",
    "contact:email": "magasin44sth@envie.org",
    "contact:housenumber": "18",
    "contact:phone": "+33 2 40 43 21 11",
    "contact:postcode": "44800",
    "contact:street": "Rue Bobby Sands",
    "contact:website": "http://envie-44.envie.org/envie-nantes-st-herblain/",
    "description": "Les particuliers peuvent déposer en déchèteries ou ici leurs appareils électroménagers. C'est également un magasin qui présente les appareils électroménagers à prix abordables. Il y a aussi la réparation (vous repartez avec votre appareil).",
    "mapillary": "zstEd_nG0F6YV1MvlR7uSg",
    "name": "Envie 44",
    "network": "Envie",
    "note": "Voir https://wiki.openstreetmap.org/wiki/WikiProject_CircularEconomy pour des conseils de cartographie.",
    "opening_hours": "Mo-Sa 10:00-13:00,14:00-19:00",
    "operator": "SCOP Envie44",
    "phone": "+33 2 40 43 82 37",
    "recycling:electrical_items": "yes",
    "recycling_type": "centre",
    "second_hand": "only",
    "shop": "appliance",
    "source": "Visite des locaux par MieuxTrierANantes 01/15",
    "website": "http://envie-44.envie.org"
  }
},
{
  "type": "node",
  "id": 4512007628,
  "lat": 47.2677170,
  "lon": -1.4848566,
  "tags": {
    "contact:website": "http://www.planete-occasion-nantes.fr/",
    "image": "https://static4.pagesjaunes.fr/media/ugc/planete_occasion_04402600_172842999",
    "name": "Planète Occasion",
    "opening_hours": "Mo-Sa 09:30-12:00,14:00-19:00",
    "operator": "Entreprise Planète Occasion",
    "second_hand": "only",
    "shop": "general"
  }
},
{
  "type": "node",
  "id": 4524886662,
  "lat": 47.7195844,
  "lon": -1.3765132,
  "tags": {
    "amenity": "deposit_sale",
    "clothes": "women;children",
    "contact:city": "Châteaubriant",
    "contact:facebook": "https://www.facebook.com/pages/category/Clothing-Store/Nous-et-nos-chouchous-D%C3%A9p%C3%B4t-Vente-123827131002355/",
    "contact:housenumber": "6",
    "contact:phone": "+33 2 40 81 83 24",
    "contact:postcode": "44110",
    "contact:street": "rue de Couere",
    "description": "Dépôt-Vente, magasin de vêtements pour femmes, enfants, espace puériculture et jeux d'éveil.",
    "image": "http://www.mairie-chateaubriant.fr/medias/2017/11/nous-et-nos-chouchous-311x208.jpg",
    "name": "Nous et nos chouchous",
    "note": "Voir https://wiki.openstreetmap.org/wiki/WikiProject_CircularEconomy pour conseils de cartographie.",
    "opening_hours": "Tu-Sa 9:30-12:00,14:15-19:00",
    "recycling:clothes": "yes",
    "recycling:shoes": "yes",
    "second_hand": "only",
    "shop": "clothes"
  }
},
{
  "type": "node",
  "id": 4558612491,
  "lat": 45.8190862,
  "lon": 1.2619980,
  "tags": {
    "contact:phone": "+33 5 55 304286",
    "name": "Jupiter Automobile",
    "opening_hours": "Mo 14:00-17:45; Tu-Fr 08:30-11:45; Tu-Fr 14:00-17:45; Sa 08:30-11:45",
    "ref:FR:NAF": "3831Z",
    "ref:FR:SIRET": "39499301800016",
    "second_hand": "only",
    "shop": "car_parts",
    "website": "https://www.jupiterautomobiles.com"
  }
},
{
  "type": "node",
  "id": 4563589899,
  "lat": 47.5010048,
  "lon": 8.2328884,
  "tags": {
    "name": "Auto Tanex GmbH",
    "second_hand": "only",
    "shop": "car"
  }
},
{
  "type": "node",
  "id": 4568751280,
  "lat": 46.9543909,
  "lon": 7.4329430,
  "tags": {
    "contact:addr": "Mittelstrasse 12, 3012 Bern",
    "contact:email": "info@milleprintemps-vintage.com",
    "contact:mobile": "+41 76 4914449",
    "contact:website": "http://www.milleprintemps-vintage.com/shop/contacts",
    "name": "mille printemps vintage",
    "opening_hours": "Mo off; Tu 15:00-19:00; We 13:00-19:00; Tu 11:00-15:00; Fr 13:00-19:00; Sa 12:00-16:00; Su off; PH off",
    "second_hand": "only",
    "shop": "clothes",
    "website": "http://www.milleprintemps-vintage.com"
  }
},
{
  "type": "node",
  "id": 4576027917,
  "lat": 50.8485418,
  "lon": 4.3521223,
  "tags": {
    "addr:city": "Bruxelles - Brussel",
    "addr:country": "BE",
    "addr:housenumber": "11",
    "addr:postcode": "1000",
    "addr:street": "Rue des Fripiers - Kleerkopersstraat",
    "contact:phone": "+32 2 2179570",
    "contact:website": "http://petitsriens.be/rue-des-fripiers-11-1000-bruxelles/",
    "name": "Les Petits Riens - Spullenhulp",
    "name:fr": "Les Petits Riens",
    "name:nl": "Spullenhulp",
    "opening_hours": "Mo-Sa 10:30-18:00; Su,PH off",
    "second_hand": "only",
    "shop": "clothes"
  }
},
{
  "type": "node",
  "id": 4586849389,
  "lat": 46.0670982,
  "lon": 6.3136411,
  "tags": {
    "addr:city": "La Roche-sur-Foron",
    "addr:housenumber": "6",
    "addr:postcode": "74800",
    "addr:street": "Faubourg Saint-Martin",
    "name": "Alpabi",
    "operator": "Association loi 1901",
    "phone": "+33 4 50 25 67 43",
    "second_hand": "only",
    "shop": "clothes",
    "website": "http://www.alpabi.org/"
  }
},
{
  "type": "node",
  "id": 4605956791,
  "lat": 49.6835077,
  "lon": 5.8150546,
  "tags": {
    "addr:city": "Arlon",
    "addr:housenumber": "3",
    "addr:postcode": "6700",
    "addr:street": "Rue du Marché-au-Beurre",
    "name": "Oxfam Magasins du monde (vêtements)",
    "opening_hours": "Tu-Fr 09:30-18:30; Sa 09:30-13:00, 14:00-17:00",
    "second_hand": "only",
    "sells:clothes": "yes",
    "shop": "charity"
  }
},
{
  "type": "node",
  "id": 4607851308,
  "lat": 47.1482937,
  "lon": 7.2751767,
  "tags": {
    "addr:city": "Biel/Bienne",
    "addr:country": "CH",
    "addr:housenumber": "29",
    "addr:postcode": "2504",
    "addr:street": "Längfeldweg",
    "addr:street:fr": "Chemin du Long-Champ",
    "ele": "442",
    "name:de": "Heilsarmee brocki.ch",
    "name:fr": "Armée du Salut brocante.ch",
    "opening_hours": "Mo-Fr 09:00-18:30; Sa 09:00-17:00",
    "operator": "Heilsarmee",
    "phone": "+41 32 341 14 89",
    "second_hand": "only",
    "shop": "second_hand",
    "source": "website and visit",
    "website": "https://www.brocki.ch/filialen/biel/"
  }
},
{
  "type": "node",
  "id": 4621834880,
  "lat": 45.7790458,
  "lon": 3.0844946,
  "tags": {
    "name": "RoomSixteen",
    "opening_hours": "Tu-Sa 14:00-18:00",
    "second_hand": "only",
    "shop": "clothes"
  }
},
{
  "type": "node",
  "id": 4626090573,
  "lat": 49.4405342,
  "lon": 1.0928313,
  "tags": {
    "addr:city": "Rouen",
    "addr:housenumber": "54 D",
    "addr:postcode": "76000",
    "addr:street": "Rue de la Champmeslé",
    "name": "Kilo Shop",
    "phone": "+33 2 35 00 56 15",
    "second_hand": "only",
    "shop": "clothes",
    "website": "http://kilo-shop.fr",
    "wheelchair": "yes"
  }
},
{
  "type": "node",
  "id": 4628681396,
  "lat": 50.6584739,
  "lon": 4.5629273,
  "tags": {
    "addr:housenumber": "65",
    "addr:street": "Avenue Provinciale",
    "name": "Magasin du monde-Oxfam",
    "phone": "+32 10 61 82 31",
    "second_hand": "only",
    "shop": "clothes",
    "website": "https://www.oxfammagasinsdumonde.be/"
  }
},
{
  "type": "node",
  "id": 4628735514,
  "lat": 50.7199891,
  "lon": 4.6108832,
  "tags": {
    "addr:city": "Wavre",
    "addr:housenumber": "40",
    "addr:postcode": "1300",
    "addr:street": "Chaussée de Bruxelles",
    "name": "Magasin du monde-Oxfam",
    "phone": "+32 10 81 64 78",
    "second_hand": "only",
    "shop": "clothes",
    "source": "local_knowledge ; http://www.oxfammagasinsdumonde.be",
    "website": "https://www.oxfammagasinsdumonde.be/"
  }
},
{
  "type": "node",
  "id": 4641896012,
  "lat": 50.8981543,
  "lon": 4.3593800,
  "tags": {
    "addr:housenumber": "121",
    "addr:street": "Rue De Wand - De Wandstraat",
    "contact:phone": "+32 2 268 24 99",
    "name": "Les Petits Riens - Spullenhulp",
    "name:fr": "Les Petits Riens",
    "name:nl": "Spullenhulp",
    "opening_hours": "Mo-Sa 10:30-18:00",
    "operator": "Les Petits Riens - Spullenhulp",
    "second_hand": "only",
    "shop": "clothes",
    "website": "https://petitsriens.be/liste-boutiques/laeken-de-wand/"
  }
},
{
  "type": "node",
  "id": 4686173037,
  "lat": 49.1176389,
  "lon": 6.1824633,
  "tags": {
    "name": "Le Bardak - Friperie et Cie",
    "second_hand": "only",
    "shop": "clothes"
  }
},
{
  "type": "node",
  "id": 4717481405,
  "lat": 49.4229118,
  "lon": 1.0803144,
  "tags": {
    "addr:city": "Rouen",
    "addr:housenumber": "110",
    "addr:postcode": "76100",
    "addr:street": "Rue d'Elbeuf",
    "delivery": "no",
    "drive_through": "no",
    "name": "Envie",
    "opening_hours": "Mo 14:00-19:00; Tu-Sa 10:00-12:30, 14:00-19:00",
    "payment:cash": "yes",
    "phone": "+33 2 35 72 84 44",
    "second_hand": "only",
    "shop": "second_hand",
    "website": "http://normandie.envie.org"
  }
},
{
  "type": "node",
  "id": 4729388955,
  "lat": 44.8747424,
  "lon": 0.2460503,
  "tags": {
    "second_hand": "only",
    "shop": "clothes"
  }
},
{
  "type": "node",
  "id": 4734545682,
  "lat": 45.7815070,
  "lon": 4.8056633,
  "tags": {
    "contact:email": "atelierchangedechaine@gmail.com",
    "contact:website": "http://www.changedechaine.org/",
    "description": "Atelier Association de Réparation et de Vente de Cycles d'Occasion",
    "name": "Atelier Vélo Change de Chaîne",
    "opening_hours": "We-Sa 15:00-19:00",
    "opening_hours:covid19": "Tu-Sa 16:00-19:00",
    "second_hand": "only",
    "service": "repair",
    "service:bicycle:diy": "yes",
    "shop": "bicycle"
  }
},
{
  "type": "node",
  "id": 4754481841,
  "lat": 47.3488725,
  "lon": 8.2708791,
  "tags": {
    "addr:city": "Wohlen (AG)",
    "addr:housenumber": "23",
    "addr:postcode": "5610",
    "addr:street": "Bahnhofstrasse",
    "contact:email": "secondhand.wohlen@caritas-aargau.ch",
    "contact:phone": "+41 56 560 83 81",
    "contact:website": "http://www.caritas-aargau.ch/p89001142.html",
    "name": "Caritas Secondhand",
    "opening_hours": "Mo off; Tu -Fr 09:30-12:00,14:00-18:30; Sa 09:00-16:00; PH off",
    "second_hand": "only",
    "shop": "clothes",
    "website": "https://www.caritas-aargau.ch/was-wir-tun/caritas-secondhand"
  }
},
{
  "type": "node",
  "id": 4755206663,
  "lat": 45.9572423,
  "lon": 1.3997470,
  "tags": {
    "name": "Méli-Mélo",
    "opening_hours": "Tu-Fr 10:00-12:00,15:00-18:00; Th 10:00-12:00; Sa 10:00-12:30",
    "second_hand": "only",
    "shop": "clothes"
  }
},
{
  "type": "node",
  "id": 4768983721,
  "lat": 44.8352882,
  "lon": -0.5704309,
  "tags": {
    "addr:housenumber": "89",
    "addr:postcode": "33000",
    "addr:street": "Cours Victor Hugo",
    "name": "Ding fripes",
    "name:fr": "Ding fripes",
    "opening_hours": "Mo-Sa 10:00-19:00",
    "second_hand": "only",
    "shop": "clothes"
  }
},
{
  "type": "node",
  "id": 4783664527,
  "lat": 48.3905400,
  "lon": -4.4914678,
  "tags": {
    "contact:facebook": "https://www.facebook.com/boutdeguimauvebrest/",
    "contact:phone": "+33 2 98 80 17 65",
    "name": "Bout d'Guimauve",
    "second_hand": "only",
    "shop": "clothes"
  }
},
{
  "type": "node",
  "id": 4792099396,
  "lat": 47.5035257,
  "lon": 8.7223420,
  "tags": {
    "addr:city": "Winterthur",
    "addr:housenumber": "42",
    "addr:postcode": "8400",
    "addr:street": "Neuwiesenstrasse",
    "name": "Wohnmobilcenter",
    "second_hand": "only",
    "shop": "car",
    "website": "http://wohnmobilcenter.ch/"
  }
},
{
  "type": "node",
  "id": 4811514136,
  "lat": 48.1440125,
  "lon": 6.6244117,
  "tags": {
    "second_hand": "only",
    "shop": "car"
  }
},
{
  "type": "node",
  "id": 4837036631,
  "lat": 47.3916920,
  "lon": 8.5277589,
  "tags": {
    "disused:shop": "clothes",
    "name": "WipKing Second Hand",
    "second_hand": "only"
  }
},
{
  "type": "node",
  "id": 4844260120,
  "lat": 47.5098270,
  "lon": 8.6931615,
  "tags": {
    "name": "Sahne & Flieder",
    "second_hand": "only",
    "shop": "second_hand"
  }
},
{
  "type": "node",
  "id": 4863689629,
  "lat": 47.4071335,
  "lon": 9.6316783,
  "tags": {
    "name": "Twice Secondhand",
    "name:de": "Twice Secondhand",
    "second_hand": "only",
    "shop": "clothes"
  }
},
{
  "type": "node",
  "id": 4879747536,
  "lat": 47.5019794,
  "lon": 8.7802991,
  "tags": {
    "addr:city": "Winterthur",
    "addr:housenumber": "346",
    "addr:postcode": "8409",
    "addr:street": "St. Gallerstrasse",
    "name": "Lucky Cars",
    "second_hand": "only",
    "shop": "car",
    "website": "https://www.lucky-cars.ch/"
  }
},
{
  "type": "node",
  "id": 4879747538,
  "lat": 47.5016732,
  "lon": 8.7815222,
  "tags": {
    "addr:city": "Winterthur",
    "addr:housenumber": "346",
    "addr:postcode": "8409",
    "addr:street": "St. Gallerstrasse",
    "name": "Hegi Auto Garage",
    "second_hand": "only",
    "shop": "car"
  }
},
{
  "type": "node",
  "id": 4881632323,
  "lat": 46.7788357,
  "lon": 6.6397861,
  "tags": {
    "addr:city": "Yverdon-les-Bains",
    "addr:country": "CH",
    "addr:housenumber": "14",
    "addr:postcode": "1400",
    "addr:street": "Rue du Milieu",
    "brand": "Ateapic",
    "brand:wikidata": "Q104468904",
    "name": "Ateapic",
    "opening_hours": "Mo-Fr 09:00-18:30; Sa 09:00-17:00",
    "operator": "Démarche",
    "operator:wikidata": "Q104469034",
    "phone": "+41 24 420 32 28",
    "second_hand": "only",
    "shop": "clothes",
    "website": "https://ateapic.ch"
  }
},
{
  "type": "node",
  "id": 4881632332,
  "lat": 46.7789127,
  "lon": 6.6381961,
  "tags": {
    "addr:city": "Yverdon-les-Bains",
    "addr:country": "CH",
    "addr:housenumber": "29",
    "addr:postcode": "1400",
    "addr:street": "Rue du Four",
    "brand": "Ateapic",
    "brand:wikidata": "Q104468904",
    "name": "Ateapic",
    "opening_hours": "Mo-Fr 09:00-18:30; Sa 09:00-17:00",
    "operator": "Démarche",
    "operator:wikidata": "Q104469034",
    "phone": "+41 24 420 29 21",
    "second_hand": "only",
    "shop": "clothes",
    "website": "https://ateapic.ch"
  }
},
{
  "type": "node",
  "id": 4920147047,
  "lat": 43.6046838,
  "lon": 6.9895589,
  "tags": {
    "description": "Service de mise en vente de voitures d'occasion",
    "email": "cannes@agenceauto.com",
    "name": "Agence Automobilière",
    "opening_hours": "Mo-Sa 09:30-12:00,14:00-18:30",
    "phone": "+33 4 93 46 53 24",
    "second_hand": "only",
    "shop": "car",
    "source": "self survey + web site",
    "website": "https://fr.agenceauto.com/fr/agence-cannes-alpes-maritimes-8.html"
  }
},
{
  "type": "node",
  "id": 4948524191,
  "lat": 47.3691250,
  "lon": 8.5009313,
  "tags": {
    "addr:city": "Zürich",
    "addr:country": "CH",
    "addr:housenumber": "430",
    "addr:postcode": "8055",
    "addr:street": "Birmensdorferstrasse",
    "name": "schoengebraucht.ch",
    "second_hand": "only",
    "shop": "variety_store"
  }
},
{
  "type": "node",
  "id": 4960918742,
  "lat": 50.8990035,
  "lon": 4.6817249,
  "tags": {
    "name": "ABC Cars",
    "second_hand": "only",
    "shop": "car",
    "website": "http://www.abscars.be"
  }
},
{
  "type": "node",
  "id": 4961745839,
  "lat": 47.3748247,
  "lon": 8.5183963,
  "tags": {
    "addr:city": "Zürich",
    "addr:country": "CH",
    "addr:housenumber": "12",
    "addr:postcode": "8003",
    "addr:street": "Meinrad-Lienert-Strasse",
    "name": "Lula Mis-Dis Outlet & Secondhand",
    "opening_hours": "We, Fr, Sa 14:00-19:00",
    "second_hand": "only",
    "shop": "clothes"
  }
},
{
  "type": "node",
  "id": 4969139352,
  "lat": 48.7089168,
  "lon": 6.1845710,
  "tags": {
    "name": "Secrets d'Armoire",
    "second_hand": "only",
    "shop": "clothes",
    "source": "survey"
  }
},
{
  "type": "node",
  "id": 4973168537,
  "lat": 46.9477512,
  "lon": 4.2987844,
  "tags": {
    "name": "Livres d'occasion",
    "second_hand": "only",
    "shop": "books"
  }
},
{
  "type": "node",
  "id": 5001326829,
  "lat": 51.1734453,
  "lon": 4.8417066,
  "tags": {
    "addr:city": "Herentals",
    "addr:housenumber": "16",
    "addr:postcode": "2200",
    "addr:street": "Boerenkrijglaan",
    "description": "Kledij binnenbrengen: disdag tot vrijdag 10:00u-16:00u",
    "opening_hours": "We-Fr 13:30-16:00",
    "operator": "De Dorpel vzw",
    "phone": "+32 14 21 40 73",
    "second_hand": "only",
    "shop": "clothes"
  }
},
{
  "type": "node",
  "id": 5016946317,
  "lat": 50.6431939,
  "lon": 5.5802720,
  "tags": {
    "addr:city": "Lüttich-Outremeuse",
    "addr:housenumber": "5",
    "addr:postcode": "4020",
    "addr:street": "Place Saint-Pholien",
    "description": "Mostly used vinyls and CDs from 60s, 70s, 80s, ... Vinyl / CD Secondhand Records Store",
    "facebook": "https://de-de.facebook.com/Carnaby-Records-697967013592765/",
    "music": "recorded",
    "name": "Carnaby Records",
    "operator": "Olivier Bille",
    "phone": "+32 4 341 07 49",
    "second_hand": "yes/only",
    "shop": "music"
  }
},
{
  "type": "node",
  "id": 5030195360,
  "lat": 51.0657840,
  "lon": 5.0952310,
  "tags": {
    "addr:city": "Tessenderlo",
    "addr:housenumber": "15",
    "addr:postcode": "3980",
    "addr:street": "Heilig Hartlaan",
    "email": "yvesbeckers@yvesmotors.be",
    "name": "Yves motors",
    "phone": "+32 13 66 14 78",
    "second_hand": "only",
    "shop": "car",
    "website": "https://yvesmotors.be/"
  }
},
{
  "type": "node",
  "id": 5033719307,
  "lat": 47.3926198,
  "lon": 9.5866839,
  "tags": {
    "name": "Brockenstube",
    "opening_hours": "Apr-Oct Sa 09:00-11:30; Nov-Mar Sa 09:30-11:30",
    "operator": "Frauenverein Rebstein",
    "second_hand": "only",
    "shop": "second_hand"
  }
},
{
  "type": "node",
  "id": 5044708596,
  "lat": 47.4043562,
  "lon": 8.4001208,
  "tags": {
    "second_hand": "only",
    "shop": "books"
  }
},
{
  "type": "node",
  "id": 5048229218,
  "lat": 47.4198200,
  "lon": 8.3948397,
  "tags": {
    "name": "revendo",
    "second_hand": "only",
    "shop": "electronics",
    "website": "https://revendo.ch"
  }
},
{
  "type": "node",
  "id": 5063833111,
  "lat": 49.1163343,
  "lon": 6.1830202,
  "tags": {
    "contact:facebook": "https://www.facebook.com/Le-dressing-de-L%C3%A9a-METZ-526902484039639/",
    "name": "Le dressing de Léa",
    "second_hand": "only",
    "shop": "clothes",
    "source": "survey"
  }
},
{
  "type": "node",
  "id": 5063952958,
  "lat": 51.0657159,
  "lon": 5.0955863,
  "tags": {
    "addr:city": "Tessenderlo",
    "addr:housenumber": "15",
    "addr:postcode": "3980",
    "addr:street": "Heilig Hartlaan",
    "email": "info@tesscars.be",
    "name": "Tess Cars",
    "phone": "+32 472 121 123",
    "second_hand": "only",
    "shop": "car",
    "website": "https://www.tesscars.be/"
  }
},
{
  "type": "node",
  "id": 5094701781,
  "lat": 50.8179629,
  "lon": 4.3929526,
  "tags": {
    "addr:housenumber": "560",
    "addr:street": "Avenue de la Couronne - Kroonlaan",
    "name": "Le Gramophone",
    "second_hand": "only",
    "shop": "hifi"
  }
},
{
  "type": "node",
  "id": 5163090918,
  "lat": 50.6298313,
  "lon": 3.0553519,
  "tags": {
    "brand": "Cash Converters",
    "brand:wikidata": "Q5048645",
    "brand:wikipedia": "en:Cash Converters",
    "name": "Cash Converters",
    "second_hand": "only",
    "shop": "pawnbroker",
    "source": "survey",
    "survey:date": "2017-10"
  }
},
{
  "type": "node",
  "id": 5165521088,
  "lat": 48.8581804,
  "lon": 2.3521442,
  "tags": {
    "name": "Kilo-Shop Paris Le Marais",
    "second_hand": "only",
    "shop": "clothes",
    "wheelchair": "limited"
  }
},
{
  "type": "node",
  "id": 5175900921,
  "lat": 48.8913654,
  "lon": 2.3498841,
  "tags": {
    "addr:city": "Paris",
    "addr:housenumber": "96 bis",
    "addr:postcode": "75018",
    "addr:street": "Boulevard Barbès",
    "name": "Guerrisol",
    "opening_hours": "Mo-Sa 10:00-19:30",
    "phone": "+33 1 53 28 11 86",
    "second_hand": "only",
    "shop": "clothes",
    "website": "https://guerrisol.shop/fr/"
  }
},
{
  "type": "node",
  "id": 5178193115,
  "lat": 48.6299872,
  "lon": 2.4076596,
  "tags": {
    "contact:addr": "14 Avenue du Bos de l'Épine",
    "contact:city": "Courcouronnes",
    "contact:phone": "+33 626304031",
    "contact:postcode": "91080",
    "contact:website": "https://www.canalcycles.fr/",
    "name": "Canalcycles",
    "second_hand": "only",
    "service:bicycle:repair": "yes",
    "service:bicycle:second_hand": "yes",
    "shop": "bicycle"
  }
},
{
  "type": "node",
  "id": 5239088505,
  "lat": 51.0009361,
  "lon": 5.0885722,
  "tags": {
    "addr:city": "Schaffen",
    "addr:housenumber": "46",
    "addr:postcode": "3290",
    "addr:street": "Wezelbaan",
    "email": "autosyonal@hotmail.com",
    "name": "Auto’s Yonal",
    "phone": "+32 495 18 26 34",
    "second_hand": "only",
    "service:vehicle:air_conditioning": "yes",
    "service:vehicle:brakes": "yes",
    "service:vehicle:inspection": "yes",
    "service:vehicle:repairs": "yes",
    "shop": "car",
    "website": "http://autosyonal.be/"
  }
},
{
  "type": "node",
  "id": 5239503472,
  "lat": 50.6648047,
  "lon": 4.5671853,
  "tags": {
    "addr:housenumber": "8",
    "addr:street": "Espace du Coeur de Ville",
    "clothes": "babies",
    "name": "Second Chapitre",
    "opening_hours": "Tu 13:00-17:30; Th 13:00-17:30; We 10:00-12:00,13:00-17:30; Fr-Sa 10:00-12:00,13:00-17:30",
    "second_hand": "only",
    "shop": "clothes",
    "website": "https://www.secondchapitre.be/"
  }
},